X,Y,objectid,cenefa,zona_sitp,nombre,via,direccion_bandera,localidad,longitud,latitud,consecutivo_zona,tipo_m_s,consola,panel,audio,zonas_nuevas,globalid,shape
1001501.8705,1010204.5189,1,001A00,00,C.C. Iserra 100,AC 100,AC 100 - KR 54,Barrios Unidos,-74.06397139,4.68848077,001,M,AC 100 - KR 54 (001A00),AC 100 - KR 54,Avenida Calle 100 Carrera 54,C,{1C0DBC4E-15BC-4BBE-BC16-5628077DBE2E},
1003505.2964,1009719.1501,2,001A01,01,Br. Rincón del Chicó,AC 100,AC 100 - KR 13,Usaquén,-74.04591449,4.68409095,001,M,AC 100 - KR 13 (001A01),AC 100 - KR 13,Avenida Calle 100 Carrera 13,B,{60A22A44-AD56-4DF4-A3E6-6830B9FB0792},
1001237.8229,1018098.4923,3,001A02,02,Gimnasio Iragua,AV. Boyacá,AV. Boyacá - AC 170,Suba,-74.06635014,4.75986663,001,S,AV. Boyacá - AC 170 (001A02),AV. Boyacá - AC 170,Avenida Boyacá Avenida Calle 170,C,{97155274-E4D5-45A4-891F-2DCA19FF10D9},
1000673.3223,1010317.6539,4,001A03,03,Br. Julio Flórez,AC 100,AC 100 - KR 66A,Suba,-74.07143918,4.68950396,001,M,AC 100 - KR 66A  (001A03),AC 100 - KR 66A,Avenida Calle 100 Carrera 66 A,D,{B985CE20-6632-44CF-B18D-9E1B6F6DFCAA},
999680.0046,1009557.0743,5,001A04,04,Avenida Calle 80,AK 68,AK 68 - CL 79D,Barrios Unidos,-74.08039205,4.682626,001,M,AK 68 - CL 79D (001A04),AK 68 - CL 79D,Avenida Carrera 68 Calle 79 D,D,{58BD61D6-11E8-41C7-8182-29D630599B5E},
999237.1042,1006162.2762,6,001A05,05,Br. Pablo VI Norte,AK 50,AK 50 - CL 59,Teusaquillo,-74.08438362,4.65192649,001,S,AK 50 - CL 59 (001A05),AK 50 - CL 59,Avenida Carrera 50 Calle 59,K,{DD06A226-6D9F-4B8F-81C3-321B592E65DB},
995537.7686,1004634.5489,7,001A06,06,Avenida Calle 13,AK 68,AK 68 - AC 13,Fontibón,-74.11772364,4.63810999,001,M,AK 68 - AC 13 (001A06),AK 68 - AC 13,Avenida Carrera 68 Avenida Calle 13,K,{0426991E-A517-4DC2-AD8C-62773F4642D8},
996615.2541,1003239.0415,8,001A07,07,Br. San Francisco,AK 50,AK 50 - TV 49,Puente Aranda,-74.10801229,4.62549076,001,S,AK 50 - TV 49 (001A07),AK 50 - TV 49,Avenida Carrera 50 Transversal 49,F,{E65DCC0F-10D7-4E62-A17D-F7CD6B869E30},
994616.9323,1002570.8518,9,001A08,08,Br. Hipotecho Sur,AK 68,AK 68 - CL 3 Sur,Kennedy,-74.12602137,4.61944725,001,M,AK 68 - CL 3 Sur (001A08),AK 68 - CL 3 Sur,Avenida Carrera 68 Calle Tercera Sur,F,{2E4FAB3B-A820-405C-B79F-88CCA39D9C18},
993479.2455,1000235.4742,10,001A09,09,Br. Alquería La Fragua II,AK 68,AK 68 - CL 39I Sur,Kennedy,-74.13627273,4.59832741,001,M,AK 68 - CL 39I Sur (001A09),AK 68 - CL 39I Sur,Avenida Carrera 68 Calle 39 I Sur,G,{2B415A5D-26F4-44CB-A5F3-F01A3AEE5073},
992448.8301,999307.4098,11,001A10,10,Pq. Lagunetas,AV. Boyacá,AV. Boyacá - DG 50A Sur,Tunjuelito,-74.145558,4.589934,001,M,AV. Boyacá - DG 50A Sur (001A10),AV. Boyacá - DG 50A Sur,Avenida Boyacá Diagonal 50 A Sur,H,{E41C4051-7472-4327-9128-62823A59688A},
992914.2817,997925.257200001,12,001A11,11,Br. Arborizadora Baja,AV. Boyacá,AV. Boyacá - KR 25,Tunjuelito,-74.14136231,4.57743543,001,M,AV. Boyacá - KR 25 (001A11),AV. Boyacá - KR 25,Avenida Boyacá Carrera 25,H,{7314E029-B9AB-4AEE-8D5F-C0B62559B2D6},
994875.6349,997496.7073,13,001A12,12,Funeraria Claret,AV. Caracas,AV. Caracas - CL 45 Sur,Rafael Uribe,-74.12368693,4.57356137,001,S,AV. Caracas - CL 45 Sur (001A12),AV. Caracas - CL 45 Sur,Avenida Caracas Calle 45 Sur,H,{24DDE387-4BBD-4193-A33E-D26F3D3E4CC4},
998673.1645,997232.3486,14,001A13,13,Avenida 1 de Mayo,AV. 1 de Mayo,AV. 1 de Mayo - KR 2,San Cristóbal,-74.08946486,4.57117213,001,S,AV. 1 de Mayo - KR 2 (001A13),AV. 1 de Mayo - KR 2,Avenida Primero de Mayo Carrera Segunda,L,{48E34F13-20E1-4E90-9E95-E7029A687A7C},
1001478.8155,1010210.2484,15,001B00,00,C.C. Iserra 100,AC 100,AC 100 - KR 54,Barrios Unidos,-74.06417919,4.68853259,001,M,AC 100 - KR 54 (001B00),AC 100 - KR 54,Avenida Calle 100 Carrera 54,C,{A7DA5D40-A3A2-4D06-8162-F1BC86C87D2A},
1003598.6941,1009675.2194,16,001B01,01,Br. Rincón del Chicó,AC 100,AC 100 - KR 11B,Usaquén,-74.04507271,4.68369365,001,M,AC 100 - KR 11B (001B01),AC 100 - KR 11B,Avenida Calle 100 Carrera 11 Be,B,{F0A16CE5-118C-4951-8F05-5199E321D451},
1000751.278,1010337.831,17,001B03,03,Br. Julio Flórez,AC 100,AC 100 - KR 65,Suba,-74.07073655,4.68968642,001,M,AC 100 - KR 65 (001B03),AC 100 - KR 65,Avenida Calle 100 Carrera 65,D,{AD5BF03F-9FE8-4C5B-A4D9-AD1693B7C11F},
999659.414,1009538.9016,18,001B04,04,Avenida Calle 80,AK 68,AK 68 - CL 79A,Barrios Unidos,-74.08057763,4.68246166,001,M,AK 68 - CL 79A (001B04),AK 68 - CL 79A,Avenida Carrera 68 Calle 79 A,D,{8D1D7A5D-2F69-4CA7-B299-AE42177E0CC7},
995560.9482,1004658.4446,19,001B06,06,Avenida Calle 13,AK 68,AK 68 - AC 13,Fontibón,-74.11751474,4.63832609,001,M,AK 68 - AC 13 (001B06),AK 68 - AC 13,Avenida Carrera 68 Avenida Calle 13,K,{11B1102E-45D0-4369-A831-7761F3D64C65},
994630.9951,1002625.0045,20,001B08,08,Br. Hipotecho Sur,AK 68,AK 68- CL 1 Sur,Kennedy,-74.12589467,4.61993697,001,M,AK 68- CL 1 Sur (001B08),AK 68- CL 1 Sur,Avenida Carrera 68 Calle Primera Sur,F,{DE3D9590-81FD-4F0A-A1F5-1A968E8540E7},
993458.4003,1000207.7174,21,001B09,09,Br. Alquería La Fragua II,AK 68,AK 68 - CL  39G Sur,Kennedy,-74.13646057,4.59807639,001,M,AK 68 - CL  39G Sur (001B09),AK 68 - CL  39G Sur,Avenida Carrera 68 Calle 39 G Sur,G,{54C9F51A-DFEA-4EFE-8E5A-84877A71F602},
992450.1671,999364.1379,22,001B10,10,Pq. Lagunetas,AV. Boyacá,AV. Boyacá - DG 51 Sur,Tunjuelito,-74.145546,4.590447,001,M,AV. Boyacá - DG 51 Sur (001B10),AV. Boyacá - DG 51 Sur,Avenida Boyacá Diagonal 51 Sur,H,{27033392-6873-40D6-BC98-8BFA7E40C434},
992867.5919,998015.4857,23,001B11,11,Br. Arborizadora Baja,AV. Boyacá,AV. Boyacá - KR 29,Tunjuelito,-74.14178313,4.57825134,001,M,AV. Boyacá - KR 29 (001B11),AV. Boyacá - KR 29,Avenida Boyacá Carrera 29,H,{08B3B248-230C-41D1-82ED-15BACCF85F47},
1001456.1903,1010218.557,24,001C00,00,C.C. Iserra 100,AC 100,AC 100 - KR 54,Barrios Unidos,-74.06438311,4.68860773,001,M,AC 100 - KR 54 (001C00),AC 100 - KR 54,Avenida Calle 100 Carrera 54,C,{BEBF53AF-81B5-4B75-9A5C-96611E2D92F2},
1000776.3446,1010342.8867,25,001C03,03,Br. Julio Flórez,AC 100,AC 100 - KR 65,Suba,-74.07051062,4.68973214,001,M,AC 100 - KR 65 (001C03),AC 100 - KR 65,Avenida Calle 100 Carrera 65,D,{1EB22404-76C8-40EC-AF0F-4CCCC55F5872},
999619.2284,1009508.264,26,001C04,04,AC 80,AK 68,AK 68 - CL 78,Barrios Unidos,-74.08093982,4.6821846,001,M,AK 68 - CL 78 (001C04),AK 68 - CL 78,Avenida Carrera 68 Calle 78,D,{C31ADDD7-0673-472D-8EDA-FA53E19F5F45},
995593.7804,1004692.5286,27,001C06,06,Avenida Calle 13,AK 68,AK 68 - AC 13,Fontibón,-74.11721886,4.63863434,001,M,AK 68 - AC 13 (001C06),AK 68 - AC 13,Avenida Carrera 68 Avenida Calle 13,K,{9A4C58C7-FE07-4A1A-8B6F-110D319A3C63},
994641.1467,1002654.2005,28,001C08,08,Br. Hipotecho Sur,AK 68,AK 68 - CL 1 Sur,Kennedy,-74.1258032,4.620201,001,M,AK 68 - CL 1 Sur (001C08),AK 68 - CL 1 Sur,Avenida Carrera 68 Calle Primera Sur,F,{704AB0B8-1B62-493C-AB33-7BBE518FCE9B},
995617.8736,1004713.7447,29,001D06,06,Avenida Calle 13,AK 68,AK 68 - AC 13,Fontibón,-74.11700173,4.63882621,001,M,AK 68 - AC 13 (001D06),AK 68 - AC 13,Avenida Carrera 68 Avenida Calle 13,K,{32D9DD5C-D720-47BA-ABEF-833151E49FED},
994651.3511,1002684.8851,30,001D08,08,Br. Hipotecho Sur,AK 68,AK 68 - CL 1 Sur,Kennedy,-74.12571125,4.62047849,001,M,AK 68 - CL 1 Sur (001D08),AK 68 - CL 1 Sur,Avenida Carrera 68 Calle Primera Sur,F,{961AD3F0-9759-489D-8DAB-8717E85E3C06},
1001270.5991,1007318.852,31,002A00,00,Br. San Felipe,AC 72,AC 72 - KR 22,Barrios Unidos,-74.06605629,4.66238546,002,S,AC 72 - KR 22 (002A00),AC 72 - KR 22,Avenida Calle 72 Carrera 22,A,{45168455-0612-4DA0-A96B-73BFC320D641},
1005661.6583,1014644.7632,32,002A01,01,Br. Barrancas Perlas del Norte,AC  153,AC 153 - kr 7B,Usaquén,-74.02647584,4.72863252,002,S,AC 153 - kr 7B (002A01),AC 153 - kr 7B,Avenida Calle 153 Carrera Séptima Be,B,{C42A5D01-BCB9-470E-A5B7-2C359D06A9D4},
1001273.8889,1018071.0248,33,002A02,02,Br. Iragua,AV. Boyacá,AV. Boyacá - AC 170,Suba,-74.06602504,4.75961824,002,S,AV. Boyacá - AC 170 (002A02),AV. Boyacá - AC 170,Avenida Boyacá Avenida Calle 170,C,{C335077B-9B41-4D64-BD19-718E3BF7E6F1},
999834.5324,1012720.6286,34,002A03,03,Niza Norte,AV. Boyacá,AV. Boyacá - CL 127A,Suba,-74.07899934,4.71123429,002,S,AV. Boyacá - CL 127A (002A03),AV. Boyacá - CL 127A,Avenida Boyacá Calle 127 A,C,{86F18950-69B1-4DCD-92E3-D8896742421F},
998319.7122,1010408.6653,35,002A04,04,Br. Bonanza,AV. Boyacá,AV. Boyacá - CL 74A,Engativá,-74.09265258,4.69032685,002,M,AV. Boyacá - CL 74A (002A04),AV. Boyacá - CL 74A,Avenida Boyacá Calle 74 A,D,{7AF124A4-9352-40A6-A615-E4C08528450C},
999222.6423,1006048.8514,36,002A05,05,Br. Nicolás de Federmann,AK 50,AK 50 - CL 59,Teusaquillo,-74.08451396,4.65090078,002,S,AK 50 - CL 59 (002A05),AK 50 - CL 59,Avenida Carrera 50 Calle 59,K,{550570ED-3DC0-4F90-B315-690C68200695},
995872.441,1004967.3873,37,002A06,06,Br. Granjas de Techo,AK 68,AK 68 - CL 18,Fontibón,-74.11470757,4.64112005,002,M,AK 68 - CL 18 (002A06),AK 68 - CL 18,Avenida Carrera 68 Calle 18,K,{3824A26C-DE87-48D8-918A-ACD47080FDCF},
996625.9532,1003297.34,38,002A07,07,CC Carrera,AK 50,AK 50 - AV. Américas,Puente Aranda,-74.10791589,4.62601797,002,S,AK 50 - AV. Américas (002A07),AK 50 - AV. Américas,Avenida Carrera 50 Avenida Américas,F,{A615FA69-321A-4530-8AB9-04812C890438},
994467.336,1001965.654,39,002A08,08,Br. Milenta,AK 68,AK 68 - CL 15 Sur,Puente Aranda,-74.12736919,4.61397429,002,M,AK 68 - CL 15 Sur (002A08),AK 68 - CL 15 Sur,Avenida Carrera 68 Calle 15 Sur,F,{6A59C659-2A3F-4EF5-92FA-D534FC0EB47A},
993489.1453,1000182.7364,40,002A09,09,Br. Alquería,AK 68,AK 68 - CL 42A Sur,Puente Aranda,-74.13618348,4.59785051,002,M,AK 68 - CL 42A Sur (002A09),AK 68 - CL 42A Sur,Avenida Carrera 68 Calle 42 A Sur,G,{A03A7563-2C54-4294-9A50-417E7235C05B},
993222.3678,996305.045499999,41,002A11,11,Br. San Benito,AV. Boyacá,AV. Boyacá - CL 60 Sur,Ciudad Bolívar,-74.13858469,4.56278392,002,M,AV. Boyacá - CL 60 Sur (002A11),AV. Boyacá - CL 60 Sur,Avenida Boyacá Calle 60 Sur,H,{8CE5ACEF-D6F3-4BB6-8F29-D6D26AFEFEB1},
994719.8292,997064.259299999,42,002A12,12, San José Sur,AV. Caracas,AV. Caracas - CL 46 Sur,Rafael Uribe,-74.12509074,4.5696506,002,S,AV. Caracas - CL 46 Sur (002A12),AV. Caracas - CL 46 Sur,Avenida Caracas Calle 46 Sur,H,{F2F9563D-FCE4-4F52-93D0-1FBE19972990},
998734.3905,997169.1229,43,002A13,13,Carrera 2,AV. 1 de Mayo,AV. 1 de Mayo - KR 2,San Cristóbal,-74.08891311,4.57060038,002,S,AV. 1 de Mayo - KR 2 (002A13),AV. 1 de Mayo - KR 2,Avenida Primero de Mayo Carrera Segunda,L,{0AFB1923-AA5B-42C3-BF24-DB5496ADA1FE},
998308.0003,1010394.8696,44,002B04,04,Br. Bonanza,AV. Boyacá,AV. Boyacá - CL 74A,Engativá,-74.09275813,4.69020209,002,M,AV. Boyacá - CL 74A (002B04),AV. Boyacá - CL 74A,Avenida Boyacá Calle 74 A,D,{598BB376-5CF6-4B8A-BA7B-44399135B3DF},
995904.0097,1004999.1625,45,002B06,06,Br. Granjas de Techo,AK 68,AK 68 - CL 18,Fontibón,-74.11442307,4.64140741,002,M,AK 68 - CL 18 (002B06),AK 68 - CL 18,Avenida Carrera 68 Calle 18,K,{FE4B2FBC-B10A-4C56-AAF4-A03C336925EB},
994478.4768,1002006.2992,46,002B08,08,Br. Milenta,AK 68,AK 68 - CL 17 Sur,Puente Aranda,-74.12726881,4.61434186,002,M,AK 68 - CL 17 Sur (002B08),AK 68 - CL 17 Sur,Avenida Carrera 68 Calle 17 Sur,F,{3EE3DF2F-5607-4476-9D84-0F8573EE0FDC},
993462.0423,1000137.1792,47,002B09,09,Br. Alquería,AK 68,AK 68 - CL 42A Sur,Puente Aranda,-74.13642769,4.59743851,002,M,AK 68 - CL 42A Sur (002B09),AK 68 - CL 42A Sur,Avenida Carrera 68 Calle 42 A Sur,G,{5B8E9C21-D62F-44DA-A86D-53A24D624B31},
993202.7803,996183.4542,48,002B11,11,Br. San Benito,AV. Boyacá,AV. Boyacá - CL 60B Bis Sur,Ciudad Bolívar,-74.13876111,4.56168434,002,M,AV. Boyacá - CL 60B Bis Sur (002B11),AV. Boyacá - CL 60B Bis Sur,Avenida Boyacá Calle 60 Be Bis Sur,H,{05FFB95A-ACD8-4639-8A21-F20C9EBCF919},
995938.6388,1005030.7679,49,002C06,06,Granjas de Techo,AK 68,AK 68 - CL 18,Fontibón,-74.11411099,4.64169323,002,M,AK 68 - CL 18 (002C06),AK 68 - CL 18,Avenida Carrera 68 Calle 18,K,{F3B2A202-B1E3-4D0A-AF91-0AF5AB51E084},
994461.865,1001945.3976,50,002C08,08,Br. Milenta,AK 68,AK 68 - CL 17 Sur,Puente Aranda,-74.12741848,4.61379111,002,M,AK 68 - CL 17 Sur (002C08),AK 68 - CL 17 Sur,Avenida Carrera 68 Calle 17 Sur,F,{74EA2111-B33D-4E63-8878-9C74775BAF64},
993441.8793,1000109.1273,51,002C09,09,Br. Alquería,AK 68,AK 68 - CL 42B Sur,Puente Aranda,-74.13660938,4.59718482,002,M,AK 68 - CL 42B Sur (002C09),AK 68 - CL 42B Sur,Avenida Carrera 68 Calle 42 Be Sur,G,{EFE5A17E-0683-4FF7-A02C-4147854C697B},
993189.6764,995929.965600001,52,002C11,11,Br. Meissen,AV. Boyacá,AV Boyacá - KR 18C,Ciudad Bolívar,-74.138879,4.559392,002,M,AV Boyacá - KR 18C (002C11),AV Boyacá - KR 18C,Avenida Boyacá Carrera 18 C,H,{CD0E2394-1823-43AE-9CF2-70E7AE667674},
995962.2724,1005053.4572,53,002D06,06,Br. Granjas de Techo,AK 68,AK 68 - CL 18,Fontibón,-74.113898,4.64189843,002,M,AK 68 - CL 18 (002D06),AK 68 - CL 18,Avenida Carrera 68 Calle 18,K,{213B7F22-8296-4CA1-98FB-E59909472D06},
994432.7561,1001855.2232,54,002D08,08,Br. Milenta,AK 68,AK 68 - CL 18 Sur,Puente Aranda,-74.12768076,4.61297563,002,M,AK 68 - CL 18 Sur (002D08),AK 68 - CL 18 Sur,Avenida Carrera 68 Calle 18 Sur,F,{073D4B76-257F-4B7A-8769-C39A2B69C85A},
1000966.4954,1007513.8195,55,003A00,00,Pq. Alcázares,AC 72,AC 72 - KR 27,Barrios Unidos,-74.06879709,4.66414861,003,S,AC 72 - KR 27 (003A00),AC 72 - KR 27,Avenida Calle 72 Carrera 27,A,{B8488257-24D8-4E71-8808-73BF39D02008},
1001253.6985,1015481.9176,56,003A02,02,Br. El Plan,AV. Boyacá,AV. Boyacá - CL 147,Suba,-74.06620742,4.73620476,003,M,AV. Boyacá - CL 147 (003A02),AV. Boyacá - CL 147,Avenida Boyacá Calle 147,C,{9F02A56A-F981-4E75-98B7-75157F5C9954},
999658.7844,1012496.5718,57,003A03,03,Pq. Alto de los Lagartos,AV. Boyacá,AV. Boyacá - AC 127,Suba,-74.08058342,4.70920812,003,M,AV. Boyacá - AC 127 (003A03),AV. Boyacá - AC 127,Avenida Boyacá Avenida Calle 127,C,{EF3E1CB8-DDC1-4F36-958E-97419E762685},
1000270.3811,1008065.6344,58,003A04,04,Br. 12 de Octubre,AC 72,AC 72 - KR 52,Barrios Unidos,-74.07507101,4.66913877,003,S,AC 72 - KR 52 (003A04),AC 72 - KR 52,Avenida Calle 72 Carrera 52,D,{ABABE943-389F-4D0D-B834-44D475173D7C},
999123.9944,1005797.5639,59,003A05,05,Br. Nicolás de Federmán,AK 50,AK 50 - CL 57B,Teusaquillo,-74.08540301,4.64862835,003,S,AK 50 - CL 57B (003A05),AK 50 - CL 57B,Avenida Carrera 50 Calle 57 Be,K,{040B18D5-EB27-4B1D-B71B-E4C4545E36EA},
997707.8513,1004546.5634,60,003A06,06,Fiscalía General de la Nación,AK 50,AK 50 - AC 24,Teusaquillo,-74.09816581,4.63731517,003,S,AK 50 - AC 24 (003A06),AK 50 - AC 24,Avenida Carrera 50 Avenida Calle 24,K,{76A05892-9FEB-420B-BD7A-7EA9312E65C9},
996485.8723,1003075.842,61,003A07,07,Br. San Francisco,AK 50,AK 50 - TV 48,Puente Aranda,-74.10917826,4.62401488,003,S,AK 50 - TV 48 (003A07),AK 50 - TV 48,Avenida Carrera 50 Transversal 48,F,{28FDC3D6-5F6F-4E23-A13A-168DDC8FDAEF},
991492.089,1004319.9133,62,003A08,08,Ciudad Techo II,Av. Agoberto Mejìa,AV. A. Mejía - AV. Américas,Kennedy,-74.15418487,4.63526169,003,S,AV. A. Mejía - AV. Américas (003A08),AV. A. Mejía - AV. Américas,Avenida Agoberto Mejía Avenida Américas,F,{516AC17B-2A3E-4BEF-8A2B-74636AC7BEEE},
994930.1943,1000427.8122,63,003A09,09,Urb. Santa Rita,AK 50,AK 50 - CL 31 Sur,Puente Aranda,-74.12319695,4.6000677,003,S,AK 50 - CL 31 Sur (003A09),AK 50 - CL 31 Sur,Avenida Carrera 50 Calle 31 Sur,G,{CB627692-60D2-4C73-AE4F-59725B6D8B8F},
992574.0181,998910.9399,64,003A10,10,Colmotores,AV. Boyacá,AV. Boyacá - KR 36A,Tunjuelito,-74.14442949,4.58634879,003,M,AV. Boyacá - KR 36A (003A10),AV. Boyacá - KR 36A,Avenida Boyacá Carrera 36 A,H,{010E3C24-11B0-418E-A1F8-3F4535DDB092},
993157.1723,996224.566500001,65,003A11,11,Br. San Benito,AV. Boyacá,AV. Boyacá - CL 60A Sur,Ciudad Bolívar,-74.13917214,4.56205609,003,M,AV. Boyacá - CL 60A Sur (003A11),AV. Boyacá - CL 60A Sur,Avenida Boyacá Calle 60 A Sur,H,{D5A51285-A12F-4653-8F09-2EEE94E3679A},
994744.9081,996394.308800001,66,003A12,12,Br. Marco Fidel Suárez,AV. Caracas,AV. Caracas - KR 14A,Rafael Uribe,-74.12486434,4.56359217,003,S,AV. Caracas - KR 14A (003A12),AV. Caracas - KR 14A,Avenida Caracas Carrera 14 A,H,{56190356-51EB-4A4E-98A2-51C1E572AF59},
999661.8606,997242.896500001,67,003A13,13,Br. San Cristóbal Sur,DG 13 Sur,DG 13 Sur - KR 5 Este,San Cristóbal,-74.0805551,4.57126761,003,S,DG 13 Sur - KR 5 Este (003A13),DG 13 Sur - KR 5 Este,Diagonal 13 Sur Carrera Quinta Este,L,{3879E537-8BEA-4EF1-84FC-46B04EC2CB64},
999634.5767,1012452.8301,68,003B03,03,Pq. Alto de los Lagartos,AV. Boyacá,AV. Boyacá - AC 127,Suba,-74.08080161,4.70881256,003,M,AV. Boyacá - AC 127 (003B03),AV. Boyacá - AC 127,Avenida Boyacá Avenida Calle 127,C,{6CF707C7-1CC2-42BB-AF4E-53058335B254},
992538.3362,999002.4998,69,003B10,10,Colmotores,AV. Boyacá,AV. Boyacá - DG 53 Sur,Tunjuelito,-74.14475113,4.58717674,003,M,AV. Boyacá - DG 53 Sur (003B10),AV. Boyacá - DG 53 Sur,Avenida Boyacá Diagonal 53 Sur,H,{70798A85-9B6D-44C2-98DB-02307DCB4609},
993160.4668,996252.9705,70,003B11,11,Br. San Benito,AV. Boyacá,AV. Boyacá - CL 60 Sur,Ciudad Bolívar,-74.13914247,4.56231295,003,M,AV. Boyacá - CL 60 Sur (003B11),AV. Boyacá - CL 60 Sur,Avenida Boyacá Calle 60 Sur,H,{020BAB8B-C49D-4FBE-8CBB-D0BF5718483F},
1000800.7834,1007666.9321,71,004A00,00,Br. Los Alcázares Norte,AC 72,AC 72 - KR 28,Barrios Unidos,-74.0702906,4.66553324,004,S,AC 72 - KR 28 (004A00),AC 72 - KR 28,Avenida Calle 72 Carrera 28,A,{69CA1D5B-78A0-49C1-9ACC-EBDACBF165C9},
1005476.8054,1014732.1114,72,004A01,01,Br. Barrancas Perlas del Norte,AC  153,AC 153 - 7F,Usaquén,-74.02814198,4.72942254,004,S,AC 153 - 7F (004A01),AC 153 - 7F,Avenida Calle 153 Séptima F,B,{85F82C29-9D3D-431B-A6E5-2EC10C58C11B},
1001149.0965,1015253.4852,73,004A02,02,Escuela de Carabineros,AV. Boyacá,AV. Boyacá - AC 147,Suba,-74.06715031,4.73413904,004,S,AV. Boyacá - AC 147 (004A02),AV. Boyacá - AC 147,Avenida Boyacá Avenida Calle 147,C,{434C724E-3A0E-423F-AB66-CB39F448E601},
999689.7852,1012496.4474,74,004A03,03,Pq. Alto de Los Lagartos (Club Choquenzá),AV. Boyacá,AV. Boyacá - AC 127,Suba,-74.080304,4.709207,004,M,AV. Boyacá - AC 127 (004A03),AV. Boyacá - AC 127,Avenida Boyacá Avenida Calle 127,C,{39CA35E3-4D4A-4399-BC77-70D9DD74FFA2},
996921.7014,1011024.934,75,004A04,04,Br. La Soledad Norte,AC 72,AC 72 - TV 83 Bis,Engativá,-74.10525326,4.69589943,004,S,AC 72 - TV 83 Bis (004A04),AC 72 - TV 83 Bis,Avenida Calle 72 Transversal 83 Bis,D,{7FB3B5A6-6B02-4399-83CC-BCA97321BE39},
998943.4621,1005438.0738,76,004A05,05,Pq. La Esmeralda,AK 50,AK 50 - CL 45,Teusaquillo,-74.08703003,4.64537743,004,S,AK 50 - CL 45 (004A05),AK 50 - CL 45,Avenida Carrera 50 Calle 45,K,{083E24A3-1433-4F77-99A9-4E816B955B14},
997535.5664,1004432.7086,77,004A06,06,Br. Ortezal,AK 50,AK 50 - CL 22 Bis,Puente Aranda,-74.09971849,4.63628552,004,S,AK 50 - CL 22 Bis (004A06),AK 50 - CL 22 Bis,Avenida Carrera 50 Calle 22 Bis,K,{133BEA4F-3A49-4173-BF6D-DC1C06E282CE},
996473.1496,1003103.7074,78,004A07,07,Br. San Rafael Industrial,AK 50,AK 50 - CL 5C-81,Puente Aranda,-74.10929293,4.62426687,004,S,AK 50 - CL 5C-81 (004A07),AK 50 - CL 5C-81,Avenida Carrera 50 Calle Quinta C,F,{77E17B0B-8CE0-4E89-8A01-0DCF92ED2DD9},
991483.7091,1004281.4939,79,004A08,08,Corabastos,Av. Agoberto Mejìa,AV. A. Mejía - AV. Américas,Kennedy,-74.15426036,4.63491426,004,S,AV. A. Mejía - AV. Américas (004A08),AV. A. Mejía - AV. Américas,Avenida Agoberto Mejía Avenida Américas,F,{DE4AEB31-62F5-47E4-BAD8-FB5A8908ABB5},
994908.964,1000436.3871,80,004A09,09,Pq. Santa Rita I Sector,AK 50,AK 50 - CL 31 Sur,Puente Aranda,-74.12338828,4.60014524,004,S,AK 50 - CL 31 Sur (004A09),AK 50 - CL 31 Sur,Avenida Carrera 50 Calle 31 Sur,G,{3D6DF936-60B7-4392-AE6B-AE35E07B6B86},
994596.0953,999057.763,81,004A10,10,Br. Inglés,AV. J. Gaitán C.,AV. J. Gaitán C. - CL 41 Sur,Rafael Uribe,-74.126207,4.587678,004,M,AV. J. Gaitán C. - CL 41 Sur (004A10),AV. J. Gaitán C. - CL 41 Sur,Avenida Jorge Gaitán Cortés Calle 41 Sur,H,{079E4772-47C1-4C25-9E48-E15AA7D235D5},
993159.1552,995856.185900001,82,004A11,11,Br. Lucero Alto,AV. Boyacá,AV. Boyacá - KR 18Q,Ciudad Bolívar,-74.13915398,4.55872478,004,M,AV. Boyacá - KR 18Q (004A11),AV. Boyacá - KR 18Q,Avenida Boyacá Carrera 18 Q,H,{04DDE79E-6A6C-4761-BE3E-EA7F22CBEDAF},
994925.1452,995912.749500001,83,004A12,12,Br. El Playón,AV. Caracas,AV. Caracas - KR 11,Rafael Uribe,-74.12323985,4.55923748,004,S,AV. Caracas - KR 11 (004A12),AV. Caracas - KR 11,Avenida Caracas Carrera 11,H,{B9779224-CA73-4827-8C33-9D16DA342078},
999656.7344,997253.5568,84,004A13,13,Br. San Cristóbal Sur,Dg 13 S,DG 13 Sur - KR 5 E,San Cristóbal,-74.0806013,4.57136401,004,S,DG 13 Sur - KR 5 E (004A13),DG 13 Sur - KR 5 E,Diagonal 13 Sur Carrera Quinta Este,L,{CACE0EB1-D928-4417-9E97-74AB7A26CA18},
993151.1471,995877.1106,85,004B11,11,Br. Lucero Alto,AV. Boyacá,AV. Boyacá - KR 18Q,Ciudad Bolívar,-74.13922616,4.558914,004,M,AV. Boyacá - KR 18Q (004B11),AV. Boyacá - KR 18Q,Avenida Boyacá Carrera 18 Q,H,{CD43A8D6-52E2-44BA-B79B-6270455F4A5C},
1000782.9268,1007653.4273,86,005A00,00, Alcázares,AC 72,AC 72 - KR 28,Barrios Unidos,-74.07045154,4.66541111,005,S,AC 72 - KR 28 (005A00),AC 72 - KR 28,Avenida Calle 72 Carrera 28,A,{6D98D880-BE7F-4932-B29D-0EFA9CA74DBE},
1000472.8467,1014120.4562,87,005A02,02,Br. Ciudad Jardín Norte,AV. Boyacá,AV. Boyacá - AV. Suba,Suba,-74.07324588,4.72389304,005,S,AV. Boyacá - AV. Suba (005A02),AV. Boyacá - AV. Suba,Avenida Boyacá Avenida Suba,C,{D54A5197-82FF-4F9C-8E64-6C9DE08D29D8},
996936.4157,1011210.7932,88,005A04,04,Br. Florencia,AV. C. de Cali,AV. C. de Cali - CL 72B,Engativá,-74.1051207,4.69758018,005,S,AV. C. de Cali - CL 72B (005A04),AV. C. de Cali - CL 72B,Avenida Ciudad de Cali Calle 72 Be,D,{D1AE2729-94B5-40CE-B421-E5D18ED60E40},
998463.8559,1005059.7507,89,005A05,05,Estación Gobernación,AK 50,AK 50 - AC 26,Teusaquillo,-74.09135244,4.64195614,005,S,AK 50 - AC 26 (005A05),AK 50 - AC 26,Avenida Carrera 50 Avenida Calle 26,K,{08DED8D5-3279-4804-AB5A-809A7E7CDC99},
997278.8779,1004183.1909,90,005A06,06,Batallón Caldas,AK 50,AK 50 - CL 19,Puente Aranda,-74.1020318,4.63402903,005,S,AK 50 - CL 19 (005A06),AK 50 - CL 19,Avenida Carrera 50 Calle 19,K,{3CBB4C61-3CDB-4D9D-A023-C8E28A1DA60E},
996061.23,1002508.5922,91,005A07,07,IED Sorrento,AK 50,AK 50 - CL 4F,Puente Aranda,-74.113005,4.618885,005,S,AK 50 - CL 4F (005A07),AK 50 - CL 4F,Avenida Carrera 50 Calle Cuarta F,F,{968C18B4-0F66-4125-8457-662B2113217B},
990909.6794,1003294.0671,92,005A08,08,IED Francisco de Paula Santander,Av Agoberto Mejía,AV. A. Mejía - CL 38C Sur,Kennedy,-74.15943273,4.62598428,005,S,AV. A. Mejía - CL 38C Sur (005A08),AV. A. Mejía - CL 38C Sur,Avenida Agoberto Mejía Calle 38 C Sur,F,{4206B5A5-EE32-4C18-8BB3-96216DBF820A},
994729.6383,1000182.9366,93,005A09,09,Barrio San Luis,AK 50,AK 50 - CL 37 Sur,Puente Aranda,-74.12500421,4.59785315,005,S,AK 50 - CL 37 Sur (005A09),AK 50 - CL 37 Sur,Avenida Carrera 50 Calle 37 Sur,G,{EAC65F42-798C-4737-A002-FDDE28B7A1FB},
994058.6262,998867.9134,94,005A10,10,Policía Nacional,AV. J. Gaitán C.,AV. J. Gaitán C. - CL 47A Sur,Tunjuelito,-74.13105045,4.58596082,005,M,AV. J. Gaitán C. - CL 47A Sur (005A10),AV. J. Gaitán C. - CL 47A Sur,Avenida Jorge Gaitán Cortés Calle 47 A Sur,H,{EC8AC698-9F64-4B69-93B9-8CFA3FBD4CEB},
993204.2624,995875.750399999,95,005A11,11,Hsp. de Meissen,AV. Boyacá,AV. Boyacá - KR 18B,Ciudad Bolívar,-74.13874752,4.55890174,005,M,AV. Boyacá - KR 18B (005A11),AV. Boyacá - KR 18B,Avenida Boyacá Carrera 18 Be,H,{409DDC18-17B0-4363-97BA-5EA2D3E022C0},
995030.8753,995787.2907,96,005A12,12,Estación Molinos,AV. Caracas,AV. Caracas - KR 7,Rafael Uribe,-74.122287,4.558103,005,S,AV. Caracas - KR 7 (005A12),AV. Caracas - KR 7,Avenida Caracas Carrera Séptima,H,{72625D0E-5B16-4296-8E1A-D95F521F780F},
999273.7561,999182.1043,97,005A13,13,Instituto Nacional de Cancerología,AC 1,AC 1 - KR 9,Santa Fe,-74.08405272,4.58880406,005,S,AC 1 - KR 9 (005A13),AC 1 - KR 9,Avenida Calle Primera Carrera 9,L,{2CE8DDE7-9679-403A-8C1A-7B55974E07BC},
994113.5051,998880.245100001,98,005B10,10,Policía Nacional,AV. J. Gaitán C.,AV. J. Gaitán C. - CL 47 Sur,Tunjuelito,-74.1305559,4.58607238,005,M,AV. J. Gaitán C. - CL 47 Sur (005B10),AV. J. Gaitán C. - CL 47 Sur,Avenida Jorge Gaitán Cortés Calle 47 Sur,H,{25E38030-153E-4356-BABC-FD086D426C0C},
993212.5996,995851.6205,99,005B11,11,Hsp. de Meissen,AV. Boyacá,AV. Boyacá - KR 18 Bis,Ciudad Bolívar,-74.13867237,4.55868353,005,M,AV. Boyacá - KR 18 Bis (005B11),AV. Boyacá - KR 18 Bis,Avenida Boyacá Carrera 18 Bis,H,{8284926D-2665-4420-BE9D-E0F1C873BE6C},
1000628.8178,1007764.6404,100,006A00,00,Monumento Rafael Uribe Uribe,AC 72,AC 72 - KR 29,Barrios Unidos,-74.07184049,4.66641683,006,S,AC 72 - KR 29 (006A00),AC 72 - KR 29,Avenida Calle 72 Carrera 29,A,{F608C160-6DD0-462B-B8F4-77939988C4B3},
1005025.9373,1015299.8236,101,006A01,01,Urb. Villas del Mediterráneo,AK 9,AK 9 - CL 156,Usaquén,-74.03220561,4.73455668,006,S,AK 9 - CL 156 (006A01),AK 9 - CL 156,Avenida Carrera Novena Calle 158 A,B,{27FCA84B-2A4E-4827-88EF-F6B01D9882A7},
1001286.6192,1012583.7297,102,006A02,02,Br. Prado Veraniego,AC 127,AC 127 - KR 56B,Suba,-74.06591112,4.70999621,006,S,AC 127 - KR 56B (006A02),AC 127 - KR 56B,Avenida Calle 127 Carrera 56 Be,C,{2E8CC933-E840-4B31-8ACA-41E1F60135E1},
998303.6967,1013270.639,103,006A03,03,Br. Los Cerezos,AV. C. de Cali,AV. C. de Cali - KR 91,Suba,-74.09279749,4.71620792,006,S,AV. C. de Cali - KR 91 (006A03),AV. C. de Cali - KR 91,Avenida Ciudad de Cali Carrera 91,C,{3E496451-9CFF-4CF4-B64F-52C08426F592},
996981.1662,1011235.8815,104,006A04,04,Br. La Soledad Norte,AV. C. de Cali,AV. C. de Cali - CL 74,Engativá,-74.10471736,4.69780707,006,S,AV. C. de Cali - CL 74 (006A04),AV. C. de Cali - CL 74,Avenida Ciudad de Cali Calle 74,D,{B85B8F1D-234C-4026-92A4-973F327C89A2},
998423.5677,1004997.9734,105,006A05,05,Avenida El Dorado,AK 50,AK 50 - AC 26,Teusaquillo,-74.09171553,4.64139748,006,S,AK 50 - AC 26 (006A05),AK 50 - AC 26,Avenida Carrera 50 Avenida Calle 26,K,{44FE9DAA-A762-4C0D-9A9A-9303CCA72726},
997264.0489,1004126.1919,106,006A06,06,Batallón Caldas,AK 50,AK 50 - CL 19,Puente Aranda,-74.10216543,4.63351358,006,S,AK 50 - CL 19 (006A06),AK 50 - CL 19,Avenida Carrera 50 Calle 19,K,{A7B1BA44-6E9C-4029-9ED1-8FD005993D3D},
996067.987,1002478.3662,107,006A07,07,Br. Brasilia,AK 50,AK 50 - CL 4C,Puente Aranda,-74.11294409,4.61861167,006,S,AK 50 - CL 4C (006A07),AK 50 - CL 4C,Avenida Carrera 50 Calle Cuarta C,F,{8B892C75-F3AB-4929-A77A-5152A9F867C9},
990922.5878,1003337.7961,108,006A08,08,Pq. Metropolitano Cayetano Cañizares,Av Agoberto Mejía,AV. A. Mejía - CL 38 Sur,Kennedy,-74.15931644,4.62637974,006,S,AV. A. Mejía - CL 38 Sur  (006A08),AV. A. Mejía - CL 38 Sur,Avenida Agoberto Mejía Calle 38 Sur,F,{4E85BFF9-70BA-4FB9-B377-F7D55339388A},
994746.2826,1000237.8109,109,006A09,09,Br. Autopista Sur,AK 50,AK 50 - CL 35 Sur,Puente Aranda,-74.12485424,4.59834939,006,S,AK 50 - CL 35 Sur (006A09),AK 50 - CL 35 Sur,Avenida Carrera 50 Calle 35 Sur,G,{9DE24240-2C31-4EF5-8D31-92CC7F298091},
994109.1835,998854.1152,110,006A10,10,Policía Nacional,AV. J. Gaitán C.,AV. J. Gaitán C. - CL 47 Sur,Rafael Uribe,-74.13059483,4.58583608,006,M,AV. J. Gaitán C. - CL 47 Sur (006A10),AV. J. Gaitán C. - CL 47 Sur,Avenida Jorge Gaitán Cortés Calle 47 Sur,H,{84B21566-2DCA-4C65-9A5D-082357EB242A},
993350.8021,995448.7027,111,006A11,11,Br. México,AV. Boyacá,AV. Boyacá - CL 64 Sur,Ciudad Bolívar,-74.13742666,4.55504001,006,M,AV. Boyacá - CL 64 Sur (006A11),AV. Boyacá - CL 64 Sur,Avenida Boyacá Calle 64 Sur,H,{044D30F9-353C-4CDA-9D84-56B1988FCA8E},
995134.2378,995295.971799999,112,006A12,12,Br. Molinos I Sector,AV. Caracas,AV. Caracas - KR 6,Tunjuelito,-74.12135528,4.55366,006,S,AV. Caracas - KR 6  (006A12),AV. Caracas - KR 6,Avenida Caracas Carrera Sexta,H,{915D28CF-0DA3-4CB4-BE1A-5B756ACBDB16},
999068.9352,996950.021299999,113,006A13,13,Av. La Victoria,AK 3 E,KR 3 Este - CL 22 - 61 Sur,San Cristóbal,-74.0858983,4.56861906,006,S,KR 3 Este - CL 22 - 61 Sur (006A13),KR 3 Este - CL 22 - 61 Sur,Carrera Tercera Este Calle 20 Sur,L,{ED8C19BD-9B76-4D2D-B550-9D3E178A9FB9},
994060.248,998844.5743,114,006B10,10,Policía Nacional,AV. J. Gaitán C.,AV. J. Gaitán C. - CL 47A Sur,Tunjuelito,-74.13103582,4.58574977,006,M,AV. J. Gaitán C. - CL 47A Sur (006B10),AV. J. Gaitán C. - CL 47A Sur,Avenida Jorge Gaitán Cortés Calle 47 A Sur,H,{3A247214-4EB0-4BD3-8424-BD04D9487D06},
993365.4683,995412.8562,115,006B11,11,Br. México,AV. Boyacá,AV. Boyacá - CL 64 Sur,Ciudad Bolívar,-74.13729447,4.55471585,006,M,AV. Boyacá - CL 64 Sur (006B11),AV. Boyacá - CL 64 Sur,Avenida Boyacá Calle 64 Sur,H,{48211513-B669-4262-AE30-97195477A3F5},
999433.09,1001929.8231,116,007A00,00,Br. El Listón,AC 19,AC 19 - KR 20,Los Mártires,-74.082617,4.613652,007,M,AC 19 - KR 20 (007A00),AC 19 - KR 20,Avenida Calle 19 Carrera 20,A,{768842C9-7B27-456E-A741-3CDF56659730},
1005061.4223,1015321.0822,117,007A01,01,Br. Barrancas,AK 9,AK 9 - CL 156,Usaquén,-74.03188574,4.7347489,007,S,AK 9 - CL 156 (007A01),AK 9 - CL 156,Avenida Carrera Novena Calle 156,B,{AD053C10-FC86-4EBE-8AD3-41C4FF5876B1},
1000976.2165,1003135.8898,118,538A00,00,Br. La Magdalena,Cl 36,CL 36 - KR 13A,Santa Fe,-74.06870996,4.62455855,538,S,CL 36 - KR 13A (538A00),CL 36 - KR 13A,Calle 36 13 A,A,{421AAC89-430D-4644-A5D7-0D9976E3EFE3},
1000710.6104,1012741.6575,119,007A02,02,C.C. Bulevar Niza,AC 127,AC 127 - AV. Suba,Suba,-74.0711029,4.71142443,007,S,AC 127 - AV. Suba (007A02),AC 127 - AV. Suba,Avenida Calle 127 Avenida Suba,C,{C56920E7-1549-49F3-B172-2999A4A63697},
998328.6361,1013270.8753,120,007A03,03,Br. Los Cerezos,AV. C. de Cali,AV. C. de Cali - KR 91,Suba,-74.0925727,4.71621006,007,S,AV. C. de Cali - KR 91 (007A03),AV. C. de Cali - KR 91,Avenida Ciudad de Cali Carrera 91,C,{24E631DB-578D-49FF-A79F-BBB1D0E96F79},
997240.2906,1011597.3809,121,007A04,04,Br. La Granja,AV. C. de Cali,AV. C. de Cali - CL 76A,Engativá,-74.10238193,4.70107623,007,S,AV. C. de Cali - CL 76A (007A04),AV. C. de Cali - CL 76A,Avenida Ciudad de Cali Calle 76 A,D,{82F23560-13E6-4C40-ACD8-AECEF6E16AE0},
997608.6739,1009465.2718,122,007A05,05,Colegio Andrés Frey,AV. Boyacá,AV. Boyacá - CL 66A,Engativá,-74.099061,4.68179549,007,M,AV. Boyacá - CL 66A (007A05),AV. Boyacá - CL 66A,Avenida Boyacá Calle 66 A,D,{C7A98459-B424-4BB8-AD34-295528889F21},
995793.0045,1007323.4235,123,007A06,06,Avenida Esperanza,AV. Boyacá,AV. Boyacá - AV. Esperanza,Fontibón,-74.11542463,4.66242587,007,M,AV. Boyacá - AV. Esperanza (007A06),AV. Boyacá - AV. Esperanza,Avenida Boyacá Avenida Esperanza,K,{C2F8A7B2-700C-4B85-A99C-5C047B40BEB9},
995923.3501,1002214.3893,124,007A07,07,Br. Barcelona,AK 50,AK 50 - CL 3-57 / 67,Puente Aranda,-74.11424747,4.61622443,007,S,AK 50 - CL 3-57 / 67 (007A07),AK 50 - CL 3-57 / 67,Avenida Carrera 50 Calle Tercera,F,{4B370F6C-E112-47B8-880C-D4DA2CC44F05},
990615.8621,1002977.2338,125,007A08,08,IED San Pedro Claver,Av Agoberto Mejía,AV. A. Mejía - CL 41B Sur,Kennedy,-74.16208036,4.62311882,007,S,AV. A. Mejía - CL 41B Sur (007A08),AV. A. Mejía - CL 41B Sur,Avenida Agoberto Mejía Calle 41 Be Sur,F,{E14A1A51-392E-4CD4-BCF5-C1D8091D2A48},
994587.8549,999852.7114,126,007A09,09,Urb. Villa Sonia,AK 50,AK 50 - CL 39A Sur,Puente Aranda,-74.12628175,4.5948668,007,S,AK 50 - CL 39A Sur (007A09),AK 50 - CL 39A Sur,Avenida Carrera 50 Calle 39 A Sur,G,{A5B18F3C-AAA8-44F8-8C49-F0925186CF48},
993653.7809,998778.950099999,127,007A10,10,Br. Samore,AV. J. Gaitán C.,AV. J. Gaitán C. - CL 49B Sur,Tunjuelito,-74.13469878,4.58515604,007,M,AV. J. Gaitán C. - CL 49B Sur (007A10),AV. J. Gaitán C. - CL 49B Sur,Avenida Jorge Gaitán Cortés Calle 49 Be Sur,H,{9FE8D41E-E7F0-46F6-B4AF-650E9493E3BE},
993310.7158,995411.011700001,128,007A11,11,Br. Lucero del Sur,AV. Boyacá,AV. Boyacá - CL 64ABis Sur,Ciudad Bolívar,-74.13778787,4.55469913,007,M,AV. Boyacá - CL 64ABis Sur (007A11),AV. Boyacá - CL 64ABis Sur,Avenida Boyacá Calle 64 A Bis Sur,H,{BCFA7546-C7E6-4FD0-98F3-CC573EFA4D59},
995162.8912,994643.16,129,007A12,12,Escuela de Artillería No. 13,AV. Caracas,AV. Caracas - TV 5D,Rafael Uribe,-74.12109672,4.54775656,007,S,AV. Caracas - TV 5D (007A12),AV. Caracas - TV 5D,Avenida Caracas Transversal Quinta D,H,{F94DE181-7E18-4B6D-A4BF-3EAFDBC7C115},
999068.1876,996930.3369,130,007A13,13,Br. San Blas,AK 3 E,KR 3 E - DG 20A Sur,San Cristóbal,-74.08590503,4.56844105,007,S,KR 3 E - DG 20A Sur (007A13),KR 3 E - DG 20A Sur,Carrera Tercera Este Diagonal 20 A Sur,L,{98E25E1C-FBE2-4769-920E-FD6C4BE9C927},
999477.9181,1001891.4511,131,007B00,00,Br. El Listón,AC 19,AC 19 - KR 22,Los Mártires,-74.082213,4.613305,007,M,AC 19 - KR 22 (007B00),AC 19 - KR 22,Avenida Calle 19 Carrera 22,A,{61AB94EB-5088-4D6D-BE01-38C15C636DCE},
997621.6593,1009483.5176,132,007B05,05,Colegio Andrés Frey,AV. Boyacá,AV. Boyacá - CL 66A,Engativá,-74.09894397,4.68196049,007,M,AV. Boyacá - CL 66A (007B05),AV. Boyacá - CL 66A,Avenida Boyacá Calle 66 A,D,{419F45CB-3187-465E-B40B-E425987B2FA6},
995772.1245,1007298.598,133,007B06,06,Avenida Esperanza,AV. Boyacá,AV. Boyacá - AV. Esperanza,Fontibón,-74.11561281,4.66220136,007,M,AV. Boyacá - AV. Esperanza (007B06),AV. Boyacá - AV. Esperanza,Avenida Boyacá Avenida Esperanza,K,{D8B7FF49-01E1-4A50-AB85-4FFF2BC6F367},
993582.9184,998765.592499999,134,007B10,10,Br. Samore,AV. J. Gaitán C.,AV. J. Gaitán C. - CL 50 Sur,Tunjuelito,-74.13533736,4.58503519,007,M,AV. J. Gaitán C. - CL 50 Sur (007B10),AV. J. Gaitán C. - CL 50 Sur,Avenida Jorge Gaitán Cortés Calle 50 Sur,H,{BB01E36D-F620-431E-942B-F4D439EB0233},
993278.2473,995504.982100001,135,007B11,11,Br. Lucero del Sur,AV. Boyacá,AV. Boyacá - CL 64ABis Sur,Ciudad Bolívar,-74.13808052,4.55554889,007,M,AV. Boyacá - CL 64ABis Sur (007B11),AV. Boyacá - CL 64ABis Sur,Avenida Boyacá Calle 64 A Bis Sur,H,{7867D6CE-3725-49FF-AD17-AA1E11643BC8},
995748.2852,1007269.3098,136,007C06,06,Avenida Esperanza,AV. Boyacá,AV. Boyacá - AV. Esperanza,Fontibón,-74.11582765,4.66193649,007,M,AV. Boyacá - AV. Esperanza (007C06),AV. Boyacá - AV. Esperanza,Avenida Boyacá Avenida Esperanza,K,{B1E4B163-0B3C-4C86-BE35-4B81F6B33148},
997853.6455,1001084.8974,137,008A00,00,Estación Comuneros,AC 6,AC 6 - AK 30,Los Mártires,-74.096851,4.606011,008,S,AC 6 - AK 30 (008A00),AC 6 - AK 30,Avenida Calle Sexta Avenida Carrera 30,A,{D33C3EBE-88E8-48DC-824C-4F188FCECA64},
1005010.3503,1014835.7451,138,008A01,01,Br. La Liberia,AK 9,AK 9 - AC 153,Usaquén,-74.03234638,4.73035999,008,S,AK 9 - AC 153 (008A01),AK 9 - AC 153,Avenida Carrera Novena Avenida Calle 153,B,{3B6E23B6-4A5A-4F2F-850D-18ED21A17E1B},
1002919.2162,1015690.2266,139,008A02,02,Colegio Sagrado Corazón de Jesús,Cl 153,AC 153 - KR 45,Suba,-74.05119483,4.7380881,008,S,AC 153 - KR 45 (008A02),AC 153 - KR 45,Avenida Calle 153 Carrera 50,B,{C888078D-17A0-4F98-8FC7-D80427FE7767},
997514.36,1015359.2164,140,008A03,03,Br. Lago de Suba,AV. C. de Cali,AV. C. de Cali - CL 131B,Suba,-74.09991276,4.73509489,008,S,AV. C. de Cali - CL 131B (008A03),AV. C. de Cali - CL 131B,Avenida Ciudad de Cali Calle 131 Be,C,{4C7F8629-95E9-42F8-A2B7-4C5CF9600B7D},
998430.3176,1012186.2478,141,008A04,04,Br. La Española,AV. C. de Cali,AV. C. de Cali - DG 84A,Engativá,-74.091656,4.7064017,008,S,AV. C. de Cali - DG 84A (008A04),AV. C. de Cali - DG 84A,Avenida Ciudad de Cali Diagonal 84 A,D,{2F38D6F3-637B-458F-9211-C2F3813F6C7C},
996123.8933,1007705.7634,142,008A05,05,Avenida Calle 26,AV. Boyacá,AV. Boyacá - AC 26,Fontibón,-74.11244258,4.66588356,008,M,AV. Boyacá - AC 26 (008A05),AV. Boyacá - AC 26,Avenida Boyacá Avenida Calle 26,K,{4DEE1766-3521-414C-972E-1BA536F27AAC},
995789.2804,1007239.2553,143,008A06,06,Avenida Esperanza,AV. Boyacá,AV. Boyacá - AV. Esperanza,Fontibón,-74.11545816,4.66166473,008,M,AV. Boyacá - AV. Esperanza (008A06),AV. Boyacá - AV. Esperanza,Avenida Boyacá Avenida Esperanza,K,{EF9AC065-D54A-4217-8E94-C05BE9540DB4},
995946.4769,1002210.6989,144,008A07,07,Br. La Primavera Norte,AK 50,AK 50 - CL 3,Puente Aranda,-74.11403904,4.61619107,008,S,AK 50 - CL 3 (008A07),AK 50 - CL 3,Avenida Carrera 50 Calle Tercera,F,{4D04B5E1-2819-409B-92A6-C413129F3467},
990561.4622,1002964.2994,145,008A08,08,Pq. Metropolitano Cayetano Cañizares,Av Agoberto Mejía,AV. A. Mejía - CL 41C Sur,Kennedy,-74.16257061,4.62300179,008,S,AV. A. Mejía - CL 41C Sur (008A08),AV. A. Mejía - CL 41C Sur,Avenida Agoberto Mejía Calle 41 C Sur,F,{03AAC775-7DFC-4B47-8F43-9C839A4B36FB},
994564.608,999873.932600001,146,008A09,09,Urb Villa Sonia,AK 50,AK 50 - CL 39A Sur,Puente Aranda,-74.12649126,4.59505869,008,S,AK 50 - CL 39A Sur (008A09),AK 50 - CL 39A Sur,Avenida Carrera 50 Calle 39 A Sur,G,{69AFD7E0-EEC5-4891-9BA8-308575CA49EA},
993266.1248,998652.7061,147,008A10,10,Br. Fátima (Colegio La Presentación  Fátima),AV. J. Gaitán C.,AV. J. Gaitán C. - DG 50 Sur,Tunjuelito,-74.13819216,4.58401411,008,S,AV. J. Gaitán C. - DG 50 Sur (008A10),AV. J. Gaitán C. - DG 50 Sur,Avenida Jorge Gaitán Cortés Diagonal 50 Sur,H,{CB5DCFA4-802C-4FB8-9D4D-2A7E63805DB2},
993440.3123,995198.7335,148,008A11,11,Br. México,AV. Boyacá,AV. Boyacá - CL 65A Sur,Ciudad Bolívar,-74.13661986,4.55277957,008,S,AV. Boyacá - CL 65A Sur (008A11),AV. Boyacá - CL 65A Sur,Avenida Boyacá Calle 65 A Sur,H,{C60A1C26-453D-4C84-8593-D065B8456943},
995182.8969,994197.6412,149,008A12,12,Ladrillera Santafé,AV. Caracas,AV. Caracas - KR 56,Usme,-74.1209162,4.54372769,008,S,AV. Caracas - KR 56 (008A12),AV. Caracas - KR 56,Avenida Caracas Carrera 56,H,{646A760E-C33A-4CC5-8687-BF331C560CD5},
998935.9638,996530.9023,150,008A13,13,IED Tomás Rueda Vargas,AK 5 E,KR 5 Este - CL 26 Sur,San Cristóbal,-74.08709653,4.5648289,008,S,KR 5 Este - CL 26 Sur (008A13),KR 5 Este - CL 26 Sur,Carrera Quinta Este Calle 26 Sur,L,{C18D0BCF-55C6-469B-A1FF-59D47289826F},
996196.41,1007786.9881,151,008B05,05,Avenida Calle 26,AV. Boyacá,AV. Boyacá - AC 26,Fontibón,-74.11178903,4.66661811,008,M,AV. Boyacá - AC 26 (008B05),AV. Boyacá - AC 26,Avenida Boyacá Avenida Calle 26,K,{441B638F-457E-49B8-A2E8-C2E07A193648},
995772.5046,1007219.1054,152,008B06,06,Avenida Esperanza,AV. Boyacá,AV. Boyacá - AV. Esperanza,Fontibón,-74.11560934,4.6614825,008,M,AV. Boyacá - AV. Esperanza (008B06),AV. Boyacá - AV. Esperanza,Avenida Boyacá Avenida Esperanza,K,{B5938ED5-DE47-452E-BB7C-BDB3E06A72E8},
999057.0944,1002592.3662,153,009A00,00,C.C. Calima,AC 22,AC 22 - KR 29A,Los Mártires,-74.0860056,4.61964342,009,S,AC 22 - KR 29A (009A00),AC 22 - KR 29A,Avenida Calle 22 Carrera 29 A,A,{CE997CC4-B406-427A-A7B1-BDB7AE99F0AF},
1005047.6496,1014853.3283,154,009A01,01,Avenida Calle 153,AK 9,AK 9 - AC 153,Usaquén,-74.03201016,4.73051897,009,S,AK 9 - AC 153 (009A01),AK 9 - AC 153,Avenida Carrera Novena Avenida Calle 153,B,{F59787B5-D376-41DD-9736-FDE86BB45FFF},
1002648.851,1015750.8554,155,009A02,02,Colegio Colombo Hebreo,Cl 153,AC 153 - KR 50,Suba,-74.05363182,4.73863646,009,S,AC 153 - KR 50 (009A02),AC 153 - KR 50,Avenida Calle 153 Carrera 50,B,{4E3E8B7F-AE62-4B37-B0A8-82F55CF1056D},
997479.0101,1015343.0858,156,009A03,03,Br. Aures II,AV. C. de Cali,AV. C. de Cali - CL 131B,Suba,-74.10023139,4.73494901,009,S,AV. C. de Cali - CL 131B (009A03),AV. C. de Cali - CL 131B,Avenida Ciudad de Cali Calle 131 Be,C,{5BB121C7-E569-46E7-B7F6-3F72AB402588},
997876.2544,1012345.2001,157,009A04,04,Br. La Serena,AV. C. de Cali,AV. C. de Cali - AC 90,Engativá,-74.09665,4.707839,009,S,AV. C. de Cali - AC 90 (009A04),AV. C. de Cali - AC 90,Avenida Ciudad de Cali Avenida Calle 90,D,{C561CC1C-4410-497E-9E06-DA0F6805DA2D},
995843.0041,1009643.57,158,009A05,05,Avenida José Celestino Mutis,AV. C. de Cali,AV. C. de Cali - AC 63,Engativá,-74.11497511,4.68340719,009,S,AV. C. de Cali - AC 63 (009A05),AV. C. de Cali - AC 63,Avenida Ciudad de Cali Avenida Calle 63,K,{0DDB40BA-92E8-4131-A412-B7C29FEF6670},
989897.1185,1010825.7388,159,009A06,06,Br. Puente Grande,AV. Centenario,AV. Centenario - KR 134A,Fontibón,-74.168567,4.69409271,009,S,AV. Centenario - KR 134A (009A06),AV. Centenario - KR 134A,Avenida Centenario Carrera 134 A,K,{372AF043-20E0-4D5B-AD73-495B18224B94},
989889.4725,1010799.8533,160,009A07,07,Br. Kasandra,AV. Centenario,AV. Centenario - KR 135,Fontibón,-74.16863589,4.69385861,009,S,AV. Centenario - KR 135 (009A07),AV. Centenario - KR 135,Avenida Centenario Carrera 134 A,K,{D36FAFBA-1521-448B-BEA2-DBE35A25B0A1},
995813.0965,1001971.4424,161,009A08,08,Pq. Girasol,AK 50,AK 50 - CL 2C,Puente Aranda,-74.11524098,4.61402738,009,S,AK 50 - CL 2C (009A08),AK 50 - CL 2C,Avenida Carrera 50 Calle Segunda C,G,{C1E20595-F206-4BE0-9AB6-4DCF0C65C67F},
988532.0791,1001183.2167,162,009A09,09,Urbanización La Capilla,CL 59 Sur,CL 59 Sur - KR 78L,Bosa,-74.18085762,4.60689286,009,S,CL 59 Sur - KR 78L (009A09),CL 59 Sur - KR 78L,Calle 59 Sur Carrera 79 Be,G,{AC696DBE-DE1A-4BAF-8FB5-65E4DF274BBE},
993316.446,998684.127800001,163,009A10,10,Br. El Carmen,AV. J. Gaitán C.,AV. J. Gaitán C. - DG 49B Sur,Tunjuelito,-74.1377387,4.5842983,009,S,AV. J. Gaitán C. - DG 49B Sur (009A10),AV. J. Gaitán C. - DG 49B Sur,Avenida Jorge Gaitán Cortés Diagonal 49 Be Sur,H,{2C4DCCBD-8D20-48B9-8674-C3418840595E},
993390.1377,995178.548699999,164,009A11,11,Br. Lucero del Sur,AV. Boyacá,AV. Boyacá - CL 66 Sur,Ciudad Bolívar,-74.13707199,4.552597,009,S,AV. Boyacá - CL 66 Sur (009A11),AV. Boyacá - CL 66 Sur,Avenida Boyacá Calle 66 Sur,H,{EBEFAA82-F785-4375-9ED3-9E0F81F21A42},
995244.1058,993014.341499999,165,009A12,12,Ladrillera Santafé,AV. Caracas,AV. Caracas - CL 65 Sur,Usme,-74.120364,4.533027,009,S,AV. Caracas - CL 65 Sur (009A12),AV. Caracas - CL 65 Sur,Avenida Caracas Calle 65 Sur,H,{5371096F-2CE5-4226-9F9E-C0AD94BD122D},
999036.5599,996499.0646,166,009A13,13,IED Tomás Rueda Vargas,KR 8 Este,KR 8 Este - CL 26 Sur,San Cristóbal,-74.08619,4.564541,009,S,KR 8 Este - CL 26 Sur (009A13),KR 8 Este - CL 26 Sur,Carrera Octava Este Calle 26 Sur,L,{9096F6A8-D95D-4FC3-9665-7D6962071B6A},
998089.9765,1001020.4089,167,010A00,00,IED Ricaurte,AK 27,AK 27 - AC 6,Los Mártires,-74.09472116,4.60542788,010,M,AK 27 - AC 6 (010A00),AK 27 - AC 6,Avenida Carrera 27 Avenida Calle Sexta,A,{FC7A25C9-7CDD-44F8-99F9-8B1273E93E7E},
1004994.021,1014085.2263,168,010A01,01,Pq. Cedritos,AK 9,AK 9 - CL 146,Usaquén,-74.032494,4.723573,010,S,AK 9 - CL 146 (010A01),AK 9 - CL 146,Avenida Carrera Novena Calle 146,B,{3BDE1A7E-3CCF-4DB4-A283-0BFA7E930986},
1001963.6531,1015580.5893,169,010A02,02,Mazurén 18,KR 56,KR 56 - CL 152,Suba,-74.05980806,4.73709692,010,S,KR 56 - CL 152 (010A02),KR 56 - CL 152,Carrera 56 Calle 152,C,{8D07DBA6-DB9E-450D-9747-1543ECF30B23},
997851.8685,1016541.6062,170,010A03,03,Portal de Suba,AV. C. de Cali,AV. C. de Cali - CL 142,Suba,-74.09687085,4.74578742,010,S,AV. C. de Cali - CL 142 (010A03),AV. C. de Cali - CL 142,Avenida Ciudad de Cali Calle 142,C,{42871BF6-5E03-457C-949A-9B60D5AA9716},
998154.0138,1012651.0413,171,010A04,04,Br. Los Cerezos,AV. C. de Cali,AV. C. de Cali - CL 90A,Engativá,-74.09414652,4.71060481,010,S,AV. C. de Cali - CL 90A (010A04),AV. C. de Cali - CL 90A,Avenida Ciudad de Cali Calle 90 A,D,{27804254-3C2D-4EB1-AF93-8759ED81FDEA},
996174.0956,1009986.1094,172,010A05,05,Br. Isabela I,AV. C. de Cali,AV. C. de Cali - CL 64G Bis,Engativá,-74.11199112,4.68650495,010,S,AV. C. de Cali - CL 64G Bis (010A05),AV. C. de Cali - CL 64G Bis,Avenida Ciudad de Cali Calle 64 G Bis,D,{780DEE42-3923-477E-987D-4C2426D2C84D},
990519.4773,1010331.6211,173,010A06,06,Br. San Pablo Jericó,AV. Centenario,AV. Centenario - KR 127,Fontibón,-74.16295703,4.68962507,010,S,AV. Centenario - KR 127 (010A06),AV. Centenario - KR 127,Avenida Centenario Carrera 127,K,{AAF7BB34-4FE4-4F93-9F1F-6018FCABC9FB},
990477.243,1010327.2208,174,010A07,07,Br. El Charco,AV. Centenario,AV. Centenario - KR 127,Fontibón,-74.16333769,4.68958523,010,S,AV. Centenario - KR 127 (010A07),AV. Centenario - KR 127,Avenida Centenario Carrera 127,K,{0CF55B92-3344-4924-9D4E-5662B792E661},
995834.7743,1001955.9577,175,010A08,08,Pq. Girasol,AK 50,AK 50 - CL 2D,Puente Aranda,-74.11504561,4.61388736,010,S,AK 50 - CL 2D (010A08),AK 50 - CL 2D,Avenida Carrera 50 Calle Segunda D,G,{1DF96AC3-5E6F-4D98-9E6F-8FED03350746},
988572.2148,1001166.043,176,010A09,09,Br. José Antonio Galán,CL 59 Sur,CL 59 Sur - KR 78L,Bosa,-74.1804959,4.60673761,010,S,CL 59 Sur - KR 78L (010A09),CL 59 Sur - KR 78L,Calle 59 Sur Carrera 78 L,G,{125C848B-BC98-45E5-91CE-A836BF6F903C},
993039.9536,998472.671499999,177,010A10,10,Br. San Vicente,AV. J. Gaitán C.,AV. J. Gaitán C. - CL 54 Sur,Tunjuelito,-74.14023022,4.58238586,010,S,AV. J. Gaitán C. - CL 54 Sur (010A10),AV. J. Gaitán C. - CL 54 Sur,Avenida Jorge Gaitán Cortés Calle 54 Sur,H,{F4EE7790-5052-423C-97FB-31EBE86B428F},
993743.1631,993832.206599999,178,010A11,11,Br. Casa de Teja,AV. Boyacá,AV. Boyacá - KR 15,Ciudad Bolívar,-74.13388979,4.54042213,010,S,AV. Boyacá - KR 15 (010A11),AV. Boyacá - KR 15,Avenida Boyacá Carrera 15,H,{3637A2D9-6E70-4B14-9C8D-4F6BDFD27003},
995398.3003,992823.793199999,179,010A12,12,Ladrillera Santafé,AV. Caracas,AV. Caracas - CL 65 Sur,Usme,-74.11897443,4.53130393,010,M,AV. Caracas - CL 65 Sur (010A12),AV. Caracas - CL 65 Sur,Avenida Caracas Calle 65 Sur,H,{C96CDB92-758C-49DD-81FB-48598F3EE992},
998753.3275,996336.0232,180,010A13,13,Br. Córdoba,AK 4 E,KR 4 E - CL 28 Sur,San Cristóbal,-74.08874234,4.56306656,010,S,KR 4 E - CL 28 Sur (010A13),KR 4 E - CL 28 Sur,Carrera Cuarta Este Calle 28 Sur,L,{08E66E70-138D-44CE-9F74-2D022E6E05F5},
998132.905,1001079.2249,181,010B00,00,IED Ricaurte,AK 27,AK 27 - CL 6,Los Mártires,-74.09433429,4.60595977,010,M,AK 27 - CL 6 (010B00),AK 27 - CL 6,Avenida Carrera 27 Avenida Calle Sexta,A,{EC1E0972-7ABD-438F-AFD8-0F3D93FF9CBF},
995398.2318,992726.9319,182,010B12,12,C.C. Altavista,AV. Caracas,AV. Caracas - CL 67A Sur,Usme,-74.118975,4.530428,010,M,AV. Caracas - CL 67A Sur (010B12),AV. Caracas - CL 67A Sur,Avenida Caracas Calle 67A Sur,H,{7B80AFF3-294F-4CC6-B83F-7FF05D86092A},
997547.4499,1000339.985,183,011A00,00,CAI Santa Isabel,AK 27,AK 27 - CL 1G,Los Mártires,-74.09961025,4.5992746,011,M,AK 27 - CL 1G (011A00),AK 27 - CL 1G,Avenida Carrera 27 Calle Primera G,A,{5D970434-136D-4ED3-A6BE-4C806C624C12},
1004978.695,1012252.0828,184,011A01,01,Br. Bella Suiza,AK 9,AK 9 - CL 127B,Usaquén,-74.03263321,4.70699575,011,S,AK 9 - CL 127B (011A01),AK 9 - CL 127B,Avenida Carrera Novena Calle 127 Be,B,{FD5E80CD-5825-4522-9048-A8B96DAFFE9B},
1002280.9418,1017452.8819,185,011A02,02,Br. Villa del Prado,AC 170,AC 170 - CL 56A,Suba,-74.05694761,4.75402812,011,S,AC 170 - CL 56A (011A02),AC 170 - CL 56A,Avenida Calle 170 Calle 56 A,B,{B0B96FCF-DCD2-46E1-BCD2-3C11621AC780},
998156.1542,1017099.4994,186,011A03,03,C.C. Plaza Imperial,AV. C. de Cali,AV. C. de Cali - CL 151C,Suba,-74.09412819,4.75083256,011,S,AV. C. de Cali - CL 151C (011A03),AV. C. de Cali - CL 151C,Avenida Ciudad de Cali Calle 151 C,C,{BE6DBD63-62D6-482F-A93B-D03E81835218},
998186.9116,1012654.9317,187,011A04,04,Br. La Serena,AV. C. de Cali,AV. C. de Cali - AC 90,Engativá,-74.09385,4.71064,011,S,AV. C. de Cali - AC 90 (011A04),AV. C. de Cali - AC 90,Avenida Ciudad de Cali Avenida Calle 90,D,{500EFA30-F9B9-45D4-BA7D-858CCFB91C80},
996411.9133,1010253.4283,188,011A05,05,Br. Pinar de los Álamos,AV. C. de Cali,AV. C. de Cali - CL 65C,Engativá,-74.10984776,4.68892244,011,S,AV. C. de Cali - CL 65C (011A05),AV. C. de Cali - CL 65C,Avenida Ciudad de Cali Calle 65 C,D,{94BA1AFB-FC1C-4140-B42E-D1663DBB9484},
990824.1541,1010100.7452,189,011A06,06,Br. El Laurel,AV. Centenario,AV. Centenario - KR 126,Fontibón,-74.1602107,4.68753757,011,S,AV. Centenario - KR 126 (011A06),AV. Centenario - KR 126,Avenida Centenario Carrera 126,K,{A6A8C71D-D3F1-4D5A-8268-B6FB4237512A},
990719.2943,1010141.2477,190,011A07,07,Br. El Charco I,AV. Centenario,AV. Centenario - KR 123B,Fontibón,-74.16115585,4.68790373,011,S,AV. Centenario - KR 123B (011A07),AV. Centenario - KR 123B,Avenida Centenario Carrera 123 Be,K,{07C86ECF-3009-494A-A590-E8093A4A62F9},
995661.0768,1001667.4714,191,011A08,08,IED Luis Carlos Galán,AK 50,AK 50 - CL 1G,Puente Aranda,-74.11661085,4.61127847,011,S,AK 50 - CL 1G (011A08),AK 50 - CL 1G,Avenida Carrera 50 Calle Primera G,G,{AC0B3887-A2CF-4461-BB90-D411ECAC0A73},
988704.1292,1000700.1057,192,011A09,09,Br. La Estancia,CL 59 Sur,CL 59 Sur - KR 78B,Bosa,-74.17930648,4.60252427,011,S,CL 59 Sur - KR 78B (011A09),CL 59 Sur - KR 78B,Calle 59 Sur Carrera 78 Be,G,{031BA9BA-97C8-4EB7-9885-BFA019D7583C},
993000.4332,998424.937799999,193,011A10,10,Br. San Vicente,AV. J. Gaitán C.,AV. J. Gaitán C. - CL 53B Sur,Tunjuelito,-74.14058633,4.58195417,011,S,AV. J. Gaitán C. - CL 53B Sur (011A10),AV. J. Gaitán C. - CL 53B Sur,Avenida Jorge Gaitán Cortés Calle 53 Be Sur,H,{5E81A6CC-2043-4532-85F9-776CE9BE79FF},
997909.9302,999696.3826,194,011A11,11,Br. San Antonio,AK 21,AK 21 - AC 1,Antonio Nariño,-74.09634343,4.59345452,011,S,AK 21 - AC 1 (011A11),AK 21 - AC 1,Avenida Carrera 21 Avenida Calle Primera,H,{AF8FF21D-2A28-4AF4-B119-3C4A9E3AAC09},
995112.8033,992693.7278,195,011A12,12,Portal Usme,AV. Caracas,AV. Caracas - CL 64 Sur,Usme,-74.12154701,4.53012758,011,S,AV. Caracas - CL 64 Sur (011A12),AV. Caracas - CL 64 Sur,Avenida Caracas Calle 64 Sur,H,{928B9151-F2FB-488C-A78A-ED74DC3B3A0F},
998719.8456,996218.281300001,196,011A13,13,Santa Inés Sur,AK 4 Este,KR 4 Este - CL 29 Sur,San Cristóbal,-74.08904404,4.5620018,011,S,KR 4 Este - CL 29 Sur (011A13),KR 4 Este - CL 29 Sur,Carrera Cuarta Este Calle 29 Sur,L,{EAED7C63-E971-4239-85D6-9B886B59E1C0},
997576.8692,1000379.3926,197,011B00,00,CAI Santa Isabel,AK 27,AK 27 - CL 1G,Los Mártires,-74.09934513,4.59963097,011,M,AK 27 - CL 1G (011B00),AK 27 - CL 1G,Avenida Carrera 27 Calle Primera G,A,{BBBBAE13-491A-403A-9782-F62D5B6585FF},
998924.3712,999408.0713,198,012A00,00,Br. San Bernardo,AC 1,AC 1 - KR 13A,Santa Fe,-74.08720135,4.59084747,012,S,AC 1 - KR 13A (012A00),AC 1 - KR 13A,Avenida Calle Primera Carrera 13 A,L,{E73C77B7-111B-4201-8A46-6057C7031EE4},
1004963.9236,1011633.766,199,012A01,01,Br. Santa Bárbara Oriental,AK 9,AK 9 - CL 125,Usaquén,-74.0327667,4.70140427,012,S,AK 9 - CL 125 (012A01),AK 9 - CL 125,Avenida Carrera Novena Calle 125,B,{059F709C-36F7-4799-AB13-7D9BBC773CEE},
1002052.6136,1017555.4438,200,012A02,02,Colegio San Tarsicio,AC 170,AC 170 - AV. Villas,Suba,-74.05900572,4.75495565,012,S,AC 170 - AV. Villas (012A02),AC 170 - AV. Villas,Avenida Calle 170 Avenida Villas,B,{7356C35A-2FC9-4EC9-85BF-8BFEFF3692F9},
998296.3088,1017362.5158,201,012A03,03,Pinos de Lombardía,AV. C. de Cali,AV. C. de Cali - CL 152A,Suba,-74.0928649,4.75321107,012,S,AV. C. de Cali - CL 152A (012A03),AV. C. de Cali - CL 152A,Avenida Ciudad de Cali Calle 152 A,C,{5E2570E2-3184-47A2-AA9A-EC34A9D05AEC},
999921.4186,1007766.9131,202,012A04,04,Hsp. Infantil San José,AC 68,AC 68 - KR 53,Barrios Unidos,-74.07821616,4.66643741,012,M,AC 68 - KR 53 (012A04),AC 68 - KR 53,Avenida Calle 68 Carrera 53,D,{6144C426-BD1B-4784-832E-9D3ADE568C30},
996665.5983,1010715.3522,203,012A05,05,Br. Florida Blanca,AV. C. de Cali,AV. C. de Cali - CL 70,Engativá,-74.10756145,4.69309976,012,S,AV. C. de Cali - CL 70 (012A05),AV. C. de Cali - CL 70,Avenida Ciudad de Cali Calle 70,D,{E9044F8E-5DA3-47E3-9001-87CD15523E51},
991309.8297,1009463.8877,204,012A06,06,Br. Santiago,AV. Centenario,AV. Centenario - KR 115,Fontibón,-74.15583262,4.68177892,012,S,AV. Centenario - KR 115 (012A06),AV. Centenario - KR 115,Avenida Centenario Carrera 115,K,{9AD2E1BB-A8C8-4E3A-9723-EB1DB4D99A7A},
991226.6189,1009547.0314,205,012A07,07,Br. El Charco,AV. Centenario,AV. Centenario - KR 115B,Fontibón,-74.15658268,4.68253071,012,S,AV. Centenario - KR 115B (012A07),AV. Centenario - KR 115B,Avenida Centenario Carrera 115 Be,K,{499F7C2D-F52F-45F9-9DB4-52A5FA774E9E},
995623.1699,1001547.7436,206,012A08,08,Salón Comunal el Jazmín,AK 50,AK 50 - CL 1D,Puente Aranda,-74.11695242,4.61019574,012,S,AK 50 - CL 1D (012A08),AK 50 - CL 1D,Avenida Carrera 50 Calle Primera D,G,{50E835D7-4C9B-4D75-9DDA-BC4975DC556C},
988727.5533,1000730.1492,207,012A09,09,Br. Villa Nhora,CL 59 Sur,CL 59 Sur - KR 78B,Bosa,-74.17909542,4.60279599,012,S,CL 59 Sur - KR 78B (012A09),CL 59 Sur - KR 78B,Calle 59 Sur Carrera 78 Be,G,{57F76CC7-7AFB-4101-AEC1-08E17B938386},
992875.1342,998330.7161,208,012A10,10,Br. San Vicente,AV. J. Gaitán C.,AV. J. Gaitán C. - AV. Boyacá,Tunjuelito,-74.14171542,4.58110201,012,S,AV. J. Gaitán C. - AV. Boyacá (012A10),AV. J. Gaitán C. - AV. Boyacá,Avenida Jorge Gaitán Cortés Avenida Boyacá,H,{D324EC4F-67AA-41D8-BC95-B8EB71333F7B},
997852.7196,999676.3112,209,012A11,11,Br. La Fragüita,KR 24,KR 24 - CL 3 Sur,Antonio Nariño,-74.096859,4.593273,012,S,KR 24 - CL 3 Sur (012A11),KR 24 - CL 3 Sur,Carrera 24 Calle 3 Sur,H,{C50FBE67-0979-4478-8E9A-9F22CBC64086},
995784.2164,992981.250399999,210,012A12,12,Br. El Porvenir II Sector,KR 7H,KR 7H - CL 65GBis Sur,Usme,-74.11549697,4.53272803,012,S,KR 7H - CL 65GBis Sur (012A12),KR 7H - CL 65GBis Sur,Carrea Séptima H Calle 65 G Bis Sur,H,{9934D138-8573-4878-B3D8-1CFF17624517},
998555.8923,995917.986099999,211,012A13,13,Atenas,AK 4 Este,KR 4 Este - CL 31A Sur,San Cristóbal,-74.09052146,4.55928617,012,S,KR 4 Este - CL 31A Sur (012A13),KR 4 Este - CL 31A Sur,Carrera Cuarta Este Calle 31 A Sur,L,{1953C9FE-7559-4C28-9BEF-D69E74221999},
999950.1623,1007722.0935,212,012B04,04,Hsp. Infantil San José,AC 68,AC 68 - KR 52,Barrios Unidos,-74.0779571,4.6660321,012,M,AC 68 - KR 52 (012B04),AC 68 - KR 52,Avenida Calle 68 Carrera 52,D,{D8737FB7-563D-4B65-AC0E-455F570C5E16},
1001258.8936,1005947.1412,213,013A00,00,Br. La Esperanza,AC 63,AC 63 - KR 15,Barrios Unidos,-74.06616199,4.64998095,013,S,AC 63 - KR 15 (013A00),AC 63 - KR 15,Avenida Calle 63 Carrera 15,A,{91911B43-8BD2-487A-A331-53477180E985},
1004952.4257,1011333.0911,214,013A01,01,Br. Santa Bárbara Oriental,AK 9,AK 9 - CL 121,Usaquén,-74.03287051,4.69868525,013,S,AK 9 - CL 121 (013A01),AK 9 - CL 121,Avenida Carrera Novena Calle 121,B,{5245C5FB-884D-44F6-8D05-FF17184FBD04},
1001796.6404,1017818.1082,215,013A02,02,Universidad Antonio Nariño,AC 170,AC 170 - KR 65,Suba,-74.061313,4.757331,013,S,AC 170 - KR 65 (013A02),AC 170 - KR 65,Avenida Calle 170 Carrera 65,B,{75DB60E3-0EE8-4AD0-9532-C76D9886CE40},
998306.9249,1017327.2094,216,013A03,03,Tuna Baja Las Flores,AV. C. de Cali,AV. C. de Cali - CL 152C,Suba,-74.0927692,4.75289179,013,S,AV. C. de Cali - CL 152C (013A03),AV. C. de Cali - CL 152C,Avenida Ciudad de Cali Calle 152 C,C,{C3B6BCDF-876E-4048-98D3-2A89379633C0},
999727.1552,1008045.2019,217,013A04,04,Pq. Público Modelo,AC 68,AC 68 - KR 57,Barrios Unidos,-74.07996703,4.668954,013,M,AC 68 - KR 57 (013A04),AC 68 - KR 57,Avenida Calle 68 Carrera 57,D,{40FA41B5-E952-454E-A36C-AD7DDF6178EF},
996765.6082,1010859.2761,218,013A05,05,Br. La Clarita,AV. C. de Cali,AV. C. de Cali - CL 71,Engativá,-74.10666009,4.69440132,013,S,AV. C. de Cali - CL 71 (013A05),AV. C. de Cali - CL 71,Avenida Ciudad de Cali Calle 71,D,{73D401B3-BB4A-4374-869B-21D9AF5618FC},
991538.5486,1008978.6716,219,013A06,06,Urb Portal Del Centenario,AV. Centenario,AV. Centenario - KR 107A,Fontibón,-74.1537707,4.6773913,013,S,AV. Centenario - KR 107A (013A06),AV. Centenario - KR 107A,Avenida Centenario Carrera 107 A,K,{38DBA03F-1664-449E-B95E-0938F5A96303},
991504.7722,1008928.2626,220,013A07,07,Zona Franca,AV. Centenario,AV. Centenario - KR 108A,Fontibón,-74.15407507,4.67693542,013,S,AV. Centenario - KR 108A (013A07),AV. Centenario - KR 108A,Avenida Centenario Carrera 108 A,K,{68589DB0-BC10-4204-ACAA-77194342600E},
995331.6983,1001080.5779,221,013A08,08,Br. Remanso Sur,AK 50,AK 50 - CL 17 Sur,Puente Aranda,-74.11957894,4.60597096,013,S,AK 50 - CL 17 Sur (013A08),AK 50 - CL 17 Sur,Avenida Carrera 50 Calle 17 Sur,G,{E582CC33-B695-4133-B997-B5FEAA015FDF},
988842.9517,1000379.2592,222,013A09,09,Barrio La Estancia,Cl 59 S,CL 59 Sur - KR 77K,Bosa,-74.178055,4.599623,013,S,CL 59 Sur - KR 77K (013A09),CL 59 Sur - KR 77K,Calle 59 Sur Carrera 77 K,G,{CDF92499-F3EF-4F1F-A783-81C548694C9A},
992677.086,998112.777100001,223,013A10,10,Br. Muzú,KR 33,KR 33 - DG 58 Sur,Tunjuelito,-74.1435,4.579131,013,M,KR 33 - DG 58 Sur (013A10),KR 33 - DG 58 Sur,Carrera 33 Diagonal 58 Sur,H,{F4F92352-E810-4C7D-ACD3-C99AB5D803AD},
997703.4529,999487.7182,224,013A11,11,La Fraguita,AK 21,AK 21 - CL 7 Sur,Antonio Nariño,-74.09820413,4.59156749,013,S,AK 21 - CL 7 Sur (013A11),AK 21 - CL 7 Sur,Avenida Carrera 21 Calle Séptima Sur,H,{E71F73FB-38E5-4EEA-8941-250D02CD2FA4},
997117.877,994510.002499999,225,013A12,12,Parque Entrenubes,KR  1,KR 1 - CL 48 P Sur,Rafael Uribe,-74.10347965,4.54655325,013,S,KR 1 - CL 48 P Sur (013A12),KR 1 - CL 48 P Sur,Carrera Primera Calle 48 P Sur,H,{F9C29633-C7D4-479D-8ECD-7A1F48F16FBB},
998576.6916,995925.1316,226,013A13,13,Parque Columnas,AK 4 Este,KR 4 Este - CL 31ABis Sur,San Cristóbal,-74.09033403,4.55935079,013,S,KR 4 Este - CL 31ABis Sur (013A13),KR 4 Este - CL 31ABis Sur,Carrera Cuarta Este Calle 31 A Bis Sur,L,{4632A8A2-DE54-4FA9-8DDF-7D5A12E7D762},
999776.624,1007970.6332,227,013B04,04,Pq. Público Modelo,AC 68,AC 68 - KR 56B,Barrios Unidos,-74.07952117,4.66827967,013,M,AC 68 - KR 56B (013B04),AC 68 - KR 56B,Avenida Calle 68 Carrera 56 Be,D,{954CA878-29F0-440D-8C1A-1743FD08F9F8},
992768.5174,998207.0548,228,013B10,10,Br. Muzú,AV. J. Gaitán C.,AV. J. Gaitán C. - AV. Boyacá,Tunjuelito,-74.14267612,4.57998364,013,M,AV. J. Gaitán C. - AV. Boyacá (013B10),AV. J. Gaitán C. - AV. Boyacá,Avenida Jorge Gaitán Cortés Avenida Boyacá,H,{8850BAAE-BFF0-4A11-8CE2-C6AD8099177E},
1001164.7212,1005939.7554,229,014A00,00,Centro Johann Kepler,AC 63,AC 63 - KR 16,Teusaquillo,-74.06701073,4.64991417,014,S,AC 63 - KR 16 (014A00),AC 63 - KR 16,Avenida Calle 63 Carrera 16,A,{86E552EB-8C41-45BE-95BA-8FD3972B2B09},
1004114.1154,1010320.7694,230,014A01,01,Br. Molinos Norte,AK 9,AK 9 - CL 107A,Usaquén,-74.04042688,4.68953118,014,S,AK 9 - CL 107A (014A01),AK 9 - CL 107A,Avenida Carrera Novena Calle 107 A,B,{4EA64CD2-B083-4E5A-80DD-1A37D416DF22},
1001744.1123,1017798.8753,231,014A02,02,Pq. San José de Bavaria,AC 170,AC 170 - KR 65,Suba,-74.06178649,4.75715709,014,S,AC 170 - KR 65 (014A02),AC 170 - KR 65,Avenida Calle 170 Carrera 65,B,{1BB35105-BD4A-4E3E-A3BF-FFA01654A575},
999533.1121,1012114.8716,232,014A03,03,Br. Niza (Humedal Córdoba),AV. Boyacá,AV. Boyacá - CL 119,Suba,-74.08171613,4.70575637,014,M,AV. Boyacá - CL 119 (014A03),AV. Boyacá - CL 119,Avenida Boyacá Calle 119,C,{CD1B1D43-EFF3-4085-8461-77C5C8388565},
998459.2264,1009752.819,233,014A04,04,Br. Bonanza,AK 70,AK 70 - AC 72,Engativá,-74.091395,4.684396,014,S,AK 70 - AC 72 (014A04),AK 70 - AC 72,Avenida Carrera 70 Avenida Calle 72,D,{87246A57-AF9F-4844-9797-D47CA0A15C72},
997484.2812,1008196.2956,234,014A05,05,Jardín Botánico,AC 63,AC 63 - KR 69L,Engativá,-74.10018178,4.67031999,014,S,AC 63 - KR 69L (014A05),AC 63 - KR 69L,Avenida Calle 63 Carrera 69 L,K,{92B3B6C5-0F2C-4E61-99C1-977108CA978D},
991765.0445,1008210.9749,235,014A06,06,Br. Barichara,AV. Centenario,AV. Centenario - KR 101,Fontibón,-74.15172857,4.67044917,014,S,AV. Centenario - KR 101 (014A06),AV. Centenario - KR 101,Avenida Centenario Carrera 101,K,{A66A1568-0B58-4C3F-8F78-F3C5C6C7AFBD},
991706.8952,1008313.8001,236,014A07,07,Br. Sabana Grande,AV. Centenario,AV. Centenario - KR 104,Fontibón,-74.15225276,4.67137898,014,S,AV. Centenario - KR 104 (014A07),AV. Centenario - KR 104,Avenida Centenario Carrera 104,K,{D23ABB6F-C246-4DBF-B846-111C9243DDAD},
995340.5571,1001041.2517,237,014A08,08,Br. San Eusebio,AK 50,AK 50 - DG 16 Sur,Puente Aranda,-74.11949909,4.60561533,014,S,AK 50 - DG 16 Sur (014A08),AK 50 - DG 16 Sur,Avenida Carrera 50 Diagonal 16 Sur,G,{95741472-EE1F-4760-866B-74EC9631E618},
993178.1071,1002596.8737,238,014A09,09,Br. Hipotecho Occidental,AV. Boyacá,AV. Boyacá - CL 4 Sur,Kennedy,-74.13898841,4.61968156,014,M,AV. Boyacá - CL 4 Sur (014A09),AV. Boyacá - CL 4 Sur,Avenida Boyacá Calle Cuarta Sur,F,{FBAB6686-3B8D-406D-9E34-452D2266E719},
991813.9781,998260.6877,239,014A10,10,Pq. La Coruña,AV. J. Gaitán C.,AV. J. Gaitán C. - CL 58A Sur,Ciudad Bolívar,-74.15127822,4.58046781,014,M,AV. J. Gaitán C. - CL 58A Sur (014A10),AV. J. Gaitán C. - CL 58A Sur,Avenida Jorge Gaitán Cortés Calle 58 A Sur,H,{C1E37B8A-6C46-4997-B77B-669502567FD9},
997724.1232,999484.304199999,240,014A11,11,Br. San Antonio,KR 24,KR 24 -CL 8 Sur,Antonio Nariño,-74.09801785,4.59153663,014,S,KR 24 -CL 8 Sur (014A11),KR 24 -CL 8 Sur,Carrera 24 Calle 8 Sur,H,{D8DCBA14-5CD5-4F5A-A53F-9B27376BC432},
996858.0889,994751.828199999,241,014A12,12,Instituto Los Ángeles,CL 48Q Bis Sur,CL 48Q Bis Sur - KR 2B,Rafael Uribe,-74.10582077,4.54874003,014,M,CL 48Q Bis Sur - KR 2B  (014A12),CL 48Q Bis Sur - KR 2B,Avenida Calle 48 Q Sur Carrera Segunda A,H,{CD87A8B8-3376-450D-8A84-24B120BAE21A},
999538.9175,1012084.5141,242,014B03,03,Br. Niza (Humedal Córdoba),AV. Boyacá,AV. Boyacá - CL 119,Suba,-74.08166381,4.70548185,014,M,AV. Boyacá - CL 119 (014B03),AV. Boyacá - CL 119,Avenida Boyacá Calle 119,C,{E0E3D899-7D9B-4681-A0D5-8D742DFF5015},
993187.9201,1002635.0559,243,014B09,09,Br. Hipotecho Occidental,AV. Boyacá,AV. Boyacá - CL 3A Sur,Kennedy,-74.13890001,4.62002686,014,M,AV. Boyacá - CL 3A Sur (014B09),AV. Boyacá - CL 3A Sur,Avenida Boyacá Calle Tercera A Sur,F,{E5D99A6D-F26B-4991-BB21-AF2AC126F0F4},
991717.3619,998297.041200001,244,014B10,10,Pq. La Coruña,AV. J. Gaitán C.,AV. J. Gaitán C. - CL 58A Sur,Ciudad Bolívar,-74.15214894,4.58079647,014,M,AV. J. Gaitán C. - CL 58A Sur (014B10),AV. J. Gaitán C. - CL 58A Sur,Avenida Jorge Gaitán Cortés Calle 58 A Sur,H,{29CA096F-1377-4404-BBCF-FB0BE6CB9F92},
996931.1083,994692.1588,245,014B12,12,Instituto Los Ángeles,Cl 48 Q S,AC 48Q Sur - KR 1G,Rafael Uribe,-74.10516274,4.54820045,014,M,AC 48Q Sur - KR 1G (014B12),AC 48Q Sur - KR 1G,Avenida Calle 48 Q Sur Carrera Primera G,H,{F5F845EA-F23F-4A8D-933C-A499D587EC65},
993152.0099,1002473.0161,246,014C09,09,Br. Hipotecho Occidental,AV. Boyacá,AV. Boyacá - CL 5 Sur,Kennedy,-74.13922351,4.61856149,014,M,AV. Boyacá - CL 5 Sur (014C09),AV. Boyacá - CL 5 Sur,Avenida Boyacá Calle Quinta Sur,F,{7FF3EF51-D16A-4A04-9D04-4D5197DA0E0E},
993131.5321,1002394.3408,247,014D09,09,Br. Hipotecho Occidental,AV. Boyacá,AV. Boyacá - CL 31 Sur,Kennedy,-74.139408,4.61785,014,M,AV. Boyacá - CL 31 Sur (014D09),AV. Boyacá - CL 31 Sur,Avenida Boyacá Calle 31 Sur,G,{42A7490F-5FC7-45DE-9DC2-2D7C2E0E4841},
1000921.3333,1006006.5165,248,015A00,00,Br. Baquero,AC 63,AC 63 - KR 19,Barrios Unidos,-74.06920428,4.65051793,015,S,AC 63 - KR 19 (015A00),AC 63 - KR 19,Avenida Calle 63 Carrera 19,A,{25CD6B8C-C26C-4CB1-9C38-E6CD167C5FAD},
1003737.2176,1010113.0581,249,015A01,01,Br. Rincón del Chicó,AK 9,AK 9 - CL 104A,Usaquén,-74.043824,4.687653,015,S,AK 9 - CL 104A (015A01),AK 9 - CL 104A,Avenida Carrera Novena Calle 104 A,B,{E8C99B0D-C88A-4239-A3F3-88810AEDC0BF},
1001217.7855,1018200.5745,250,015A02,02,Barrio Iragua,AC 170,AC 170 - AV. Boyacá,Suba,-74.06653074,4.76078977,015,S,AC 170 - AV. Boyacá (015A02),AC 170 - AV. Boyacá,Avenida Calle 170 Avenida Boyacá,C,{B33FA25D-D1DC-4418-A0F1-60244D178465},
1000102.6043,1013176.9874,251,015A03,03,Montessori British School,AV. Boyacá,AV. Boyacá - CL 128,Suba,-74.0765831,4.71536118,015,S,AV. Boyacá - CL 128 (015A03),AV. Boyacá - CL 128,Avenida Boyacá Calle 128,C,{C4E19C88-5CB9-4679-B5D6-A24C025A6A2A},
999181.8802,1009142.5327,252,015A04,04,Pq. Metrópolis,AK 68,AK 68 - CL 74A,Barrios Unidos,-74.08488162,4.67887723,015,M,AK 68 - CL 74A (015A04),AK 68 - CL 74A,Avenida Carrera 68 Calle 74 A,D,{9F55C1F1-4E31-4A19-A1AC-14D139637F5D},
997664.7912,1008091.571,253,015A05,05,Br. Bosque Popular,AC 63,AC 63 - KR 69C,Engativá,-74.09855484,4.66937301,015,S,AC 63 - KR 69C (015A05),AC 63 - KR 69C,Avenida Calle 63 Carrera 69 C,D,{381413A2-4FC3-4B76-A64E-2F57C4300914},
991671.6091,1008535.1912,254,015A06,06,C.C. Portal de La Sabana,AV. Centenario,AV. Centenario - KR 106,Fontibón,-74.152571,4.673381,015,S,AV. Centenario - KR 106 (015A06),AV. Centenario - KR 106,Avenida Centenario Carrera 106,K,{EBB9DF99-DF89-4E2F-9CED-743E04A5DC2E},
991583.402,1008667.3823,255,015A07,07,C.C. Portal de La Sabana,AV. Centenario,AV. Centenario - KR 106,Fontibón,-74.15336613,4.67457633,015,S,AV. Centenario - KR 106 (015A07),AV. Centenario - KR 106,Avenida Centenario Carrera 106,K,{5D27A06B-FBF8-49C8-A150-DC4928CC4FBC},
995232.1282,1000840.4015,256,015A08,08,Br. Remanso Sur,AK 50,AK 50 - CL 19 Sur,Puente Aranda,-74.12047614,4.60379896,015,S,AK 50 - CL 19 Sur (015A08),AK 50 - CL 19 Sur,Avenida Carrera 50 Calle 19 Sur,G,{745D9495-7183-4C5E-93BC-AD8BAF485175},
993020.1268,1002198.6623,257,015A09,09,Avenida 1 de Mayo,AV. Boyacá,AV. Boyacá - AV. 1 de Mayo,Kennedy,-74.14041185,4.61608037,015,M,AV. Boyacá - AV. 1 de Mayo (015A09),AV. Boyacá - AV. 1 de Mayo,Avenida Boyacá Avenida Primero de Mayo,G,{18041A37-3CC0-4F08-B6B6-0B66109F76FD},
991788.4946,998294.1479,258,015A10,10,Urb. Kalamary,AV. J. Gaitán C.,AV. J. Gaitán C. - CL 54 Sur,Ciudad Bolívar,-74.15150791,4.58077037,015,M,AV. J. Gaitán C. - CL 54 Sur (015A10),AV. J. Gaitán C. - CL 54 Sur,Avenida Jorge Gaitán Cortés Calle 54 Sur,H,{67F0B91F-92E9-4DE0-8EF5-1AB7D478EE4A},
997151.7869,998884.0187,259,015A11,11,Br. Restrepo Occidental,AK 21,AK 21 - CL 18 Sur,Antonio Nariño,-74.10317548,4.58610801,015,S,AK 21 - CL 18 Sur (015A11),AK 21 - CL 18 Sur,Avenida Carrera 21 Calle 18 Sur,H,{8C3A5167-6FD5-4508-B13D-927BA6DFB658},
996635.1502,994937.221799999,260,015A12,12,Br. Los Molinos II Sector,CL 48Q Bis Sur,CL 48Q Bis Sur - KR 3,Rafael Uribe,-74.10782982,4.55041648,015,S,CL 48Q Bis Sur - KR 3 (015A12),CL 48Q Bis Sur - KR 3,Avenida Calle 48 Q Sur Carrera Tercera,H,{5F94DB09-C9B0-480D-A906-FE7DFB267DFD},
998530.1005,995561.1642,261,015A13,13,Br. San Vicente,AK  4 E,KR 4 E - CL 33A Sur,San Cristóbal,-74.09075382,4.55605938,015,S,KR 4 E - CL 33A Sur (015A13),KR 4 E - CL 33A Sur,Carrera Cuarta Este Calle 33 A Sur,L,{8108C616-BC25-478A-B416-1DDC73011798},
999165.0896,1009122.5868,262,015B04,04,Pq. Metrópolis,AK 68,AK 68 - CL 73,Barrios Unidos,-74.08503295,4.67869685,015,M,AK 68 - CL 73 (015B04),AK 68 - CL 73,Avenida Carrera 68 Calle 73,D,{A44FD094-60C0-4AF7-9E81-178809F867C6},
993067.9506,1002381.4083,263,015B09,09,Avenida 1 de Mayo,AV. Boyacá,AV. Boyacá - AV. 1 de Mayo,Kennedy,-74.139981,4.617733,015,M,AV. Boyacá - AV. 1 de Mayo (015B09),AV. Boyacá - AV. 1 de Mayo,Avenida Boyacá Avenida Primero de Mayo,G,{2159D227-06AC-4BE9-99A4-83E9BA492094},
991842.3268,998274.1894,264,015B10,10,Urb. Kalamary,AV. J. Gaitán C.,AV. J. Gaitán C. - CL 58B Sur,Ciudad Bolívar,-74.15102277,4.58058994,015,M,AV. J. Gaitán C. - CL 58B Sur (015B10),AV. J. Gaitán C. - CL 58B Sur,Avenida Jorge Gaitán Cortés Calle 58 Be Sur,H,{13C308EB-211A-4249-921E-6B6B38BBCAAF},
999116.1266,1009049.3315,265,015C04,04,Pq.Metrópolis,AK 68,AK 68 - CL 72A,Barrios Unidos,-74.08547425,4.67803439,015,M,AK 68 - CL 72A (015C04),AK 68 - CL 72A,Avenida Carrera 68 Calle 72 A,D,{9F50AB4E-11F6-423E-94D7-BD96BB2AE786},
1000612.1799,1006062.497,266,016A00,00,Br. Muequetá,AC 63,AC 63 - AK 24,Barrios Unidos,-74.07199056,4.65102419,016,S,AC 63 - AK 24 (016A00),AC 63 - AK 24,Avenida Calle 63 Avenida Carrera 24,A,{20A4F9BF-8AC3-4BCE-B991-F6E134B12777},
1003876.6586,1010145.7053,267,016A01,01,Escuela de Infantería,AK 9,AK 9 - CL 104A,Usaquén,-74.04256719,4.68794817,016,S,AK 9 - CL 104A (016A01),AK 9 - CL 104A,Avenida Carrera Novena Calle 104 A,B,{48CFEB70-66A3-467A-9EA4-DC8440BAFD74},
1000908.6905,1018431.0021,268,016A02,02,KR 78,AC  170,AC 170 - KR 78,Suba,-74.06931691,4.76287358,016,S,AC 170 - KR 78 (016A02),AC 170 - KR 78,Avenida Calle 170 Carrera 78,B,{90714E9B-FA08-4D46-A7C7-9AD8C26123B0},
1000069.4425,1013088.2805,269,016A03,03,Montessori itish School,AV. Boyacá,AV. Boyacá - CL 128,Suba,-74.076882,4.714559,016,S,AV. Boyacá - CL 128 (016A03),AV. Boyacá - CL 128,Avenida Boyacá Calle 128,C,{717DF2F5-647D-4806-A724-9721FDEBAF41},
996199.207,1012561.1048,270,016A04,04,Centro Comercial Portal de la 80,AC 80,CL 80 - KR 99,Engativá,-74.11176593,4.70979086,016,S,CL 80 - KR 99 (016A04),CL 80 - KR 99,Calle 80 Carrera 99,D,{46E92952-4A8A-46DE-B702-DAC4804CF1D1},
999220.0363,1005513.6164,271,016A05,05,Br. Nicolás de Federmán,AC 53,AC 53 - KR 46,Teusaquillo,-74.08453739,4.6460606,016,S,AC 53 - KR 46 (016A05),AC 53 - KR 46,Avenida Calle 53 Carrera 46,K,{D0D0BF85-09A5-4446-86CE-D84C54E72DCB},
992186.0191,1007793.3558,272,016A06,06,Br. San Pedro,AV. Centenario,AV. Centenario - KR 96H,Fontibón,-74.147934,4.666673,016,S,AV. Centenario - KR 96H (016A06),AV. Centenario - KR 96H,Avenida Centenario Carrera 96 H,K,{BECB2D23-5EA9-41F7-B157-ECBA381AD78E},
992281.6647,1007732.5026,273,016A07,07,Br. El Tintal - Santa Helena,AV. Centenario,AV. Centenario - KR 96J,Fontibón,-74.14707191,4.66612279,016,S,AV. Centenario - KR 96J (016A07),AV. Centenario - KR 96J,Avenida Centenario Carrera 96 J,K,{B598B4A4-EC54-40AD-B45F-EA0AD82A0DA6},
988272.0583,1002602.3954,274,016A08,08,Salón Comunal Villa Clemencia,AV. C. de Cali,AV. C. de Cali - CL 56 Sur,Bosa,-74.18320284,4.61972628,016,S,AV. C. de Cali - CL 56 Sur (016A08),AV. C. de Cali - CL 56 Sur,Avenida Ciudad de Cali Calle 56 Sur,G,{AD4A9DFC-36B3-4F94-B511-8DDA48B74A0F},
992835.7011,1001186.2297,275,016A09,09,IED Alfonso López Pumarejo,AV. Boyacá,AV. Boyacá - CL 39 Sur,Kennedy,-74.1420731,4.60692469,016,M,AV. Boyacá - CL 39 Sur (016A09),AV. Boyacá - CL 39 Sur,Avenida Boyacá Calle 39 Sur,G,{AF8BC5C4-F69B-45BB-89CC-9FBA39C2A7F0},
995971.6104,998580.576199999,276,016A10,10,Br. Libertador,AK 24,AK 24 - CL 31B Sur,Rafael Uribe,-74.11381087,4.58336348,016,S,AK 24 - CL 31B Sur (016A10),AK 24 - CL 31B Sur,Avenida Carrera 24 Calle 31 Be Sur,H,{42CB3A6F-E169-440A-AA69-2A77A4E1287F},
996645.6223,998687.9301,277,016A11,11,Estadio Olaya,AK 24,AK 24 - CL 24 Sur,Rafael Uribe,-74.10773687,4.58433458,016,S,AK 24 - CL 24 Sur (016A11),AK 24 - CL 24 Sur,Avenida Carrera 24 Calle 24 Sur,H,{0F4D9537-42CC-4772-BFEB-1061F648D1C0},
997174.9156,994500.4924,278,016A12,12,Parque Entrenubes,KR  1,KR 1 - CL 48 P Sur,Rafael Uribe,-74.10296565,4.54646727,016,S,KR 1 - CL 48 P Sur (016A12),KR 1 - CL 48 P Sur,Carrera Primera Calle 48 P Sur,H,{8E6644C0-F654-4066-B632-D190E4A39B7D},
998364.4489,995370.277899999,279,016A13,13,Br. La Victoria,AC 36 Sur,AV. V/cio - KR 3B Este,San Cristóbal,-74.09224655,4.55433315,016,S,AV. V/cio - KR 3B Este (016A13),AV. V/cio - KR 3B Este,Avenida Villavicencio Carrera Tercera Be Este,L,{CE810289-BFE3-4AD1-BC35-686B750479A7},
992862.6755,1001265.8978,280,016B09,09,IED Alfonso López Pumarejo,AV. Boyacá,AV. Boyacá - CL 39B Sur,Kennedy,-74.14183007,4.60764516,016,M,AV. Boyacá - CL 39B Sur (016B09),AV. Boyacá - CL 39B Sur,Avenida Boyacá Calle 39 Be Sur,G,{939C29B5-F56F-4813-B6CE-7515F34607D8},
1000387.1495,1006103.5292,281,017A00,00,Br. Quinta Mutis,AC 63,AC 63 - KR 26,Barrios Unidos,-74.07401868,4.65139526,017,S,AC 63 - KR 26 (017A00),AC 63 - KR 26,Avenida Calle 63 Carrera 26,A,{6A589ACE-FE86-43BE-9D22-3886D7C394D4},
1003538.8157,1010001.3629,282,017A01,01,Br. Rincón del Chicó,AK 9,AK 9 - CL 102,Usaquén,-74.04561226,4.68664302,017,S,AK 9 - CL 102 (017A01),AK 9 - CL 102,Avenida Carrera Novena Calle 102,B,{76DC677A-289C-4528-811D-F668C42F9F2A},
1001053.1447,1018317.7747,283,017A02,02,KR 78,AC 170,AC 170 - KR 78,Suba,-74.06801481,4.76184964,017,S,AC 170 - KR 78 (017A02),AC 170 - KR 78,Avenida Calle 170 Carrera 78,C,{0C1D814C-BA13-4CEB-89B1-DC013DE8F84B},
999268.6777,1017244.2102,284,017A03,03,Br. Campanella,Cl 154 A,CL 154A - KR 94,Suba,-74.08410001,4.75214136,017,S,CL 154A - KR 94 (017A03),CL 154A - KR 94,Calle 154 A Carrera 94,C,{55421331-6E6F-4908-A9B6-7DBAA9341CCE},
994856.94,1014264.4277,285,017A04,04,Gimnasio Moderno Montesoriano,AC 80,AC 80 KR 116B,Engativá,-74.12386531,4.72519344,017,S,AC 80 KR 116B (017A04),AC 80 KR 116B,Avenida Calle 80 Carrera 116,D,{A9474413-9246-4837-8390-6C2CCA1B86B0},
998942.4008,1005643.1655,286,017A05,05,Br. La Esmeralda,AC 53,AC 53 - AK 50,Teusaquillo,-74.08703962,4.64723209,017,S,AC 53 - AK 50  (017A05),AC 53 - AK 50,Avenida Calle 53 Avenida Carrera 50,K,{451194B6-8AC4-479E-8518-A49ABBDA02B1},
992581.6635,1007646.9071,287,017A06,06,Urb. Valparaíso,AV. Centenario,AV. Centenario - KR 96B,Fontibón,-74.144368,4.665349,017,S,AV. Centenario - KR 96B (017A06),AV. Centenario - KR 96B,Avenida Centenario Carrera 96 Be,K,{85891201-7CE7-42FE-905A-B7511137393C},
992633.6536,1007598.384,288,017A07,07,Vereda El Tintal Urbano,AV. Centenario,AV. Centenario - KR 96A,Fontibón,-74.14389938,4.66491025,017,S,AV. Centenario - KR 96A (017A07),AV. Centenario - KR 96A,Avenida Centenario Carrera 96 A,K,{EF7E0606-54B1-4FF0-8124-EA63D10C1171},
992621.9457,1000611.1491,289,017A09,09,Br. El Progreso I Sector,AV. Boyacá,AV. Boyacá - CL 40 Sur,Kennedy,-74.143999,4.601724,017,M,AV. Boyacá - CL 40 Sur (017A09),AV. Boyacá - CL 40 Sur,Avenida Boyacá Calle 40 Sur,G,{8A66EBAD-6713-41F6-907F-D0A43BEB8C35},
995462.6897,998407.614399999,290,017A10,10,Br. Murillo Toro,AK 24,AK 24 - AC 36 Sur,Rafael Uribe,-74.11839706,4.58179912,017,S,AK 24 - AC 36 Sur (017A10),AK 24 - AC 36 Sur,Avenida Carrera 24 Avenida Calle 36 Sur,H,{5D2FC8C3-6E3A-4652-B18A-F3E498BA4762},
997071.1364,998702.6589,291,017A11,11,Biblioteca Carlos Restrepo,TV 21A,TV 21A - DG 20 Sur,Antonio Nariño,-74.10390223,4.58446793,017,S,TV 21A - DG 20 Sur (017A11),TV 21A - DG 20 Sur,Transversal 21 A Diagonal 20 Sur,H,{1FC33ABA-9787-4AEF-A551-A6CCA281C28E},
996879.3697,994761.9158,292,017A12,12,Br. Los Molinos II Sector,CL 48Q Bis Sur,CL 48Q Bis Sur - KR 2B,Rafael Uribe,-74.105629,4.54883126,017,S,CL 48Q Bis Sur - KR 2B  (017A12),CL 48Q Bis Sur - KR 2B,Avenida Calle 48 Q Sur Carrera Segunda Be,H,{60F9C57C-E860-4CDE-A894-17DA32F20DE5},
998433.8106,995335.657,293,017A13,13,Br. La Victoria,CL 36 Sur,AV. V/cio - KR 6 Este,San Cristóbal,-74.0916215,4.55402008,017,S,AV. V/cio - KR 6 Este (017A13),AV. V/cio - KR 6 Este,Avenida Villavicencio Carrera Sexta Este,L,{C9FC5411-3590-401A-A3A7-27672B5A8C20},
992698.0983,1000819.9563,294,017B09,09,Br. El Progreso I Sector,AV. Boyacá,AV. Boyacá - CL 40 Sur,Kennedy,-74.14331289,4.60361233,017,M,AV. Boyacá - CL 40 Sur (017B09),AV. Boyacá - CL 40 Sur,Avenida Boyacá Calle 40 Sur,G,{2372D5FD-5B04-43A7-99C8-B9AAF7E8EE98},
1000307.9383,1006093.9536,295,018A00,00,Col Nuestra Señora del Pilar,AC 63,AC 63 - KR 27,Teusaquillo,-74.07473258,4.65130867,018,S,AC 63 - KR 27 (018A00),AC 63 - KR 27,Avenida Calle 63 Carrera 27,A,{4AF77288-92FA-4441-B8A7-6E24F9A383F0},
1003854.3835,1011655.2127,296,018A01,01,Br. Santa Bárbara Central,AK 15,AK 15 - CL 122,Usaquén,-74.04276728,4.70159878,018,M,AK 15 - CL 122 (018A01),AK 15 - CL 122,Avenida Carrera 15 Calle 122,B,{5BA6DB68-F50D-4F1D-B4F5-F7EFC26682E2},
1002057.0817,1013728.0723,297,018A02,02,Br. Prado Veraniego,AC 134,AC 134 - KR 53B,Suba,-74.05896637,4.72034444,018,S,AC 134 - KR 53B (018A02),AC 134 - KR 53B,Avenida Calle 134 Carrera 53 Be,B,{8EBE8B74-A199-4980-A733-8CDAFDAF0C1F},
994950.2511,1014082.7223,298,018A04,04,Br. Engativá El Dorado,Cl 80,AC 80 - AK 114,Engativá,-74.12302414,4.72355032,018,S,AC 80 - AK 114  (018A04),AC 80 - AK 114,Avenida Calle 80 Avenida Carrera 114,D,{ABAD0D5F-FF71-4E2F-9420-1B475739DC58},
998407.4733,1009631.9744,299,018A05,05,Las Ferias,KR  70,AK 70 - CL 71A,Engativá,-74.09186143,4.68330318,018,S,AK 70 - CL 71A (018A05),AK 70 - CL 71A,Avenida Carrera 70 Calle 71 A,D,{0F12A29A-26E2-41F0-8173-4834D38B0ADE},
993181.9156,1007397.351,300,018A06,06,Br. Prado Grande,AV. Centenario,AV. Centenario - KR 89,Fontibón,-74.13895785,4.66309274,018,M,AV. Centenario - KR 89 (018A06),AV. Centenario - KR 89,Avenida Centenario Carrera 89,K,{9968DDE1-587E-4BA7-A3CC-56EF5C0B3071},
993178.759,1007346.5708,301,018A07,07,Versalles Fontibón,AV. Centenario,AV. Centenario - KR 90,Fontibón,-74.13898626,4.66263352,018,S,AV. Centenario - KR 90 (018A07),AV. Centenario - KR 90,Avenida Centenario Carrera 90,K,{1085FE14-1817-4FCE-A301-7D59763CFC16},
988782.3906,1003155.4098,302,018A08,08,CL 53 S,AV. C. de Cali,AV. C. de Cali - CL 53 Sur,Bosa,-74.17860432,4.62472791,018,S,AV. C. de Cali - CL 53 Sur (018A08),AV. C. de Cali - CL 53 Sur,Avenida Ciudad de Cali Calle 53 Sur,G,{B9102A54-5B01-453D-962C-5DA9682AFB2A},
990641.2359,1001985.4401,303,018A09,09,Br. Timiza,Av. V/cio,AV. V/cio - KR 78G,Kennedy,-74.16185062,4.61414996,018,S,AV. V/cio - KR 78G (018A09),AV. V/cio - KR 78G,Avenida Villavicencio Carrera 78 G,G,{4D96D499-B97A-449B-B835-822B4937F309},
995183.8551,998312.753599999,304,018A10,10,Urb. Quiroga IX Etapa,AK 24,AK 24 - CL 40 Sur,Rafael Uribe,-74.1209098,4.58094114,018,S,AK 24 - CL 40 Sur (018A10),AK 24 - CL 40 Sur,Avenida Carrera 24 Calle 40 Sur,H,{74FAF72D-CAB6-4ADF-9DA9-3A62ACC565E3},
996352.6582,998691.3068,305,018A11,11,Br. Centenario,AK 24,AK 24 - CL 27 Sur,Rafael Uribe,-74.110377,4.584365,018,S,AK 24 - CL 27 Sur (018A11),AK 24 - CL 27 Sur,Avenida Carrera 24 Calle 27 Sur,H,{7D47D6B2-E81F-43B4-8819-177FFA7DDAAB},
996627.1405,994965.7004,306,018A12,12,Br. Los Molinos II Sector,CL 48Q Bis Sur,CL 48Q Bis Sur - KR 4,Rafael Uribe,-74.107902,4.55067401,018,S,CL 48Q Bis Sur - KR 4 (018A12),CL 48Q Bis Sur - KR 4,Avenida Calle 48 Q Sur Carrera Tercera,H,{F42B7BC9-2490-44BB-9A5C-F82BA4172239},
998330.1776,994809.9976,307,018A13,13,Cl 41 A Bis Sur,AK 4 E,AK 4 E - CL 41 A BIS Sur,San Cristóbal,-74.09255528,4.54926646,018,S,AK 4 E - CL 41 A BIS Sur (018A13),AK 4 E - CL 41 A BIS Sur,Avenida Carrera Cuarta Este Calle 41 A Bis Sur,L,{4BB83552-1CC6-49E6-BD72-67F1B1F7AA02},
1003855.3637,1011682.1398,308,018B01,01,Br. Santa Bárbara Central,AK 15,AK 15 - CL 122,Usaquén,-74.04275844,4.70184229,018,M,AK 15 - CL 122 (018B01),AK 15 - CL 122,Avenida Carrera 15 Calle 122,B,{BD18B4F0-EE45-457C-B0D3-9DF86C058A14},
993087.8146,1007450.7993,309,018B06,06,Br. Prado Grande,AV. Centenario,AV. Centenario - KR 89,Fontibón,-74.139806,4.663576,018,M,AV. Centenario - KR 89 (018B06),AV. Centenario - KR 89,Avenida Centenario Carrera 89,K,{24498E5B-9F4B-4474-8174-96AF1C7AF71B},
1000198.6014,1006138.4612,310,019A00,00,IED Alemania Solidaria,AC 63,AC 63 - KR 28,Barrios Unidos,-74.07571799,4.65171116,019,S,AC 63 - KR 28 (019A00),AC 63 - KR 28,Avenida Calle 63 Carrera 28,A,{5E3A4A7B-7CBE-4B3E-B8C9-E8A71EAA3AAD},
1004082.9275,1011002.1688,311,019A01,01,Br. Santa Bárbara Central I y II,AC 116,AC 116 - KR 13A,Usaquén,-74.04070766,4.69569315,019,S,AC 116 - KR 13A (019A01),AC 116 - KR 13A,Avenida Calle 116 Carrera 13 A,B,{78AF458C-7D1C-4820-8A92-59D6C5F6532C},
1001112.0324,1014209.9454,312,019A02,02,Br. Iberia,AC 134,AC 134 - KR 58C,Suba,-74.06748453,4.72470223,019,S,AC 134 - KR 58C (019A02),AC 134 - KR 58C,Avenida Calle 134 Carrera 58 C,C,{D2DC06A4-9EC7-44C3-9736-63CFCE5CE2DE},
998641.7251,1017377.1806,313,019A03,03,Parque Residencial Nueva Suba,AC  153,AC 153 - KR 101A,Suba,-74.08975134,4.75334374,019,S,AC 153 - KR 101A (019A03),AC 153 - KR 101A,Avenida Calle 153 Carrera 101 A,C,{D79ACC5C-A253-43A2-82F3-1CD9536A1839},
998343.8897,1012165.7145,314,019A04,04,Br. La Serena,TV 76,TV 76 - DG 89,Engativá,-74.092435,4.706216,019,S,TV 76 - DG 89 (019A04),TV 76 - DG 89,Transversal 76 Diagonal 84 A,D,{07A68487-D59C-4F59-8740-3ED89691A54B},
998008.7517,1009081.709,315,019A05,05,Br. San Joaquín Norte,KR 70,AK 70 - CL 64I,Engativá,-74.095455,4.678327,019,S,AK 70 - CL 64I (019A05),AK 70 - CL 64I,Avenida Carrera 70 Calle 64 I,D,{764F5930-AFD0-4C24-A302-366F03F206E2},
993680.353,1006822.6521,316,019A06,06,Br. Ciudad Hayuelos,AV. Centenario,AV. Centenario - AV. C. de Cali,Fontibón,-74.13446512,4.65789606,019,S,AV. Centenario - AV. C. de Cali (019A06),AV. Centenario - AV. C. de Cali,Avenida Centenario Avenida Ciudad de Cali,K,{F9719040-6FBB-4AFC-AE91-7DE1374D96E4},
994108.2288,1006323.9546,317,019A07,07,Br. Interindustrial,AV. Centenario,AV. Centenario - KR 78G,Fontibón,-74.13060846,4.6533866,019,S,AV. Centenario - KR 78G (019A07),AV. Centenario - KR 78G,Avenida Centenario Carrera 78 G,K,{98C7818D-0CEB-4A2A-9CA2-A9870B9845C4},
988722.4461,1003066.0548,318,019A08,08,Colegio Colsubsidio Chicalá,AV. C. de Cali,AV. C. de Cali - DG 52 A Sur,Bosa,-74.17914445,4.62391979,019,S,AV. C. de Cali - DG 52 A Sur (019A08),AV. C. de Cali - DG 52 A Sur,Avenida Ciudad de Cali Diagonal 52 A Sur,G,{0CD1A83C-1F95-4C34-BA8D-EDE8CF6ADF4A},
990685.9427,1001787.4855,319,019A09,09,Br. Tocarema,Av. V/cio,AV. V/cio - KR 78A,Kennedy,-74.16144751,4.61235988,019,S,AV. V/cio - KR 78A (019A09),AV. V/cio - KR 78A,Avenida Villavicencio Carrera 78 A,G,{5ED94EA4-9D3A-4680-838B-F5C94C4842EC},
994882.9751,998208.5777,320,019A10,10,Br. Inglés,AK 24,AK 24 - CL 42 Sur,Rafael Uribe,-74.1236212,4.57999889,019,M,AK 24 - CL 42 Sur (019A10),AK 24 - CL 42 Sur,Avenida Carrera 24 Calle 42 Sur,H,{F1EE352D-8383-4723-BBE6-68C02B62F27D},
996393.7921,998674.501800001,321,019A11,11,Br. Olaya,AK 24,AK 24 - CL 27 Sur,Rafael Uribe,-74.1100063,4.58421305,019,S,AK 24 - CL 27 Sur (019A11),AK 24 - CL 27 Sur,Avenida Carrera 24 Calle 27 Sur,H,{7BD037CD-C5DB-4595-8236-6921DA7FE3F1},
994951.4007,991721.8851,322,019A12,12,Br. La Aurora,KR 14V,KR 14V - DG 69B Sur,Usme,-74.12300088,4.52133899,019,M,KR 14V - DG 69B Sur (019A12),KR 14V - DG 69B Sur,Autopista al Llano Transversal Tercera D,H,{C815E929-2F97-465A-8813-E44E20FC6974},
998322.6308,994839.7248,323,019A13,13,Cl 41 Sur,KR 4 E,KR 4 E - CL 41 Sur,San Cristóbal,-74.09262329,4.54953528,019,S,KR 4 E - CL 41 Sur  (019A13),KR 4 E - CL 41 Sur,Carrera Cuarta Este Calle 41 Sur,L,{4C1A876E-07E5-47D8-8EF9-90CBD32CA520},
994825.3978,998193.2072,324,019B10,10,Br. Inglés,AK 24,AK 24 - CL 42 Sur,Rafael Uribe,-74.12414006,4.57985986,019,M,AK 24 - CL 42 Sur (019B10),AK 24 - CL 42 Sur,Avenida Carrera 24 Calle 42 Sur,H,{D186D574-93B5-4CDB-A928-D68E877BF1FD},
995017.603,991638.0669,325,019B12,12,Br. La Aurora,KR 14V,KR 14V - DG 69F Sur,Usme,-74.12240428,4.52058105,019,M,KR 14V - DG 69F Sur (019B12),KR 14V - DG 69F Sur,Carrera 14 V Diagonal 69 F Sur,H,{D361B5C2-E455-4E8C-A2C4-277614320738},
1000785.5438,1006831.974,326,020A00,00, Siete de Agosto,AK 24,AK 24 - CL 66,Barrios Unidos,-74.07042803,4.65798263,020,S,AK 24 - CL 66 (020A00),AK 24 - CL 66,Avenida Carrera 24 Calle 66,A,{51109C70-7281-47D8-BF90-59E547A7E785},
1003630.6294,1011167.1801,327,020A01,01,Br. Santa Bárbara Occidental,Cl 116,AC 116 - KR 15B,Usaquén,-74.04478425,4.69718556,020,S,AC 116 - KR 15B (020A01),AC 116 - KR 15B,Avenida Calle 116 Carrera 15 Be,B,{21B92414-7A15-408E-BEF2-1BE03834DE53},
1000803.1652,1014331.5513,328,020A02,02,Br. Iberia,AC 134,AC 134 - AV. Boyacá,Suba,-74.07026851,4.72580196,020,S,AC 134 - AV. Boyacá (020A02),AC 134 - AV. Boyacá,Avenida Calle 134 Avenida Boyacá,C,{18E26334-38A1-4FAA-8327-A437F061FE2D},
998724.9665,1017357.6347,329,020A03,03,Br. Tuna Baja,AC 153,AC 153 - KR 103,Suba,-74.089001,4.753167,020,M,AC 153 - KR 103 (020A03),AC 153 - KR 103,Avenida Calle 153 Carrera 103,C,{9344D2D9-4396-4D9E-AECB-1A897BFA0659},
998379.672,1012271.1784,330,020A04,04,Br. La Serena,KR  76,KR 76 - CL 89A,Engativá,-74.0921125,4.70716973,020,S,KR 76 - CL 89A (020A04),KR 76 - CL 89A,Carrera 76 Calle 89 A,D,{2827E053-D1C9-4D87-AF32-59467C138FC1},
997946.6162,1008971.903,331,020A05,05,Br. San Joaquín Norte,KR  70,AK 70 - CL 65,Engativá,-74.096015,4.677334,020,S,AK 70 - CL 65 (020A05),AK 70 - CL 65,Avenida Carrera 70 Calle 65,D,{8CD4793B-9677-4C9E-941A-2CE2E71AE48C},
994128.063,1006348.4798,332,020A06,06,Br. Ciudad Hayuelos,AV. Centenario,AV. Centenario - KR 78G,Fontibón,-74.13042972,4.65360839,020,S,AV. Centenario - KR 78G (020A06),AV. Centenario - KR 78G,Avenida Centenario Carrera 78 G,K,{08D52548-761F-4965-81BF-09E3899AFC04},
994942.7639,1004902.5041,333,020A07,07,Br. Lusitania,AV. Centenario,AV. Centenario - AK 68D,Kennedy,-74.12308625,4.64053281,020,S,AV. Centenario - AK 68D (020A07),AV. Centenario - AK 68D,Avenida Centenario Avenida Carrera 68 D,F,{F91C9088-5EBE-4543-B16A-DE92553E56B4},
989107.3854,1003325.9903,334,020A08,08,Urbanización Alameda de San José II,AV. C. de Cali,AV. C. de Cali - CL 48 Sur,Kennedy,-74.17567559,4.6262709,020,S,AV. C. de Cali - CL 48 Sur (020A08),AV. C. de Cali - CL 48 Sur,Avenida Ciudad de Cali Calle 48 Sur,G,{364F8808-E168-4EA3-BCE0-9F5CC625C2D3},
990715.0388,1001608.2339,335,020A09,09,Br. Lagos de Timiza II,Av. V/cio,AV. V/cio - KR 78,Kennedy,-74.1611851,4.61073892,020,S,AV. V/cio - KR 78 (020A09),AV. V/cio - KR 78,Avenida Villavicencio Carrera 78,G,{55D0CA0A-7C23-4FC9-8369-7A3CC8B56C64},
994491.1413,998095.791200001,336,020A10,10,Br. Santa Lucía,AK 24,AK 24 - CL 46 Sur,Rafael Uribe,-74.12715223,4.57897872,020,S,AK 24 - CL 46 Sur (020A10),AK 24 - CL 46 Sur,Avenida Carrera 24 Calle 46 Sur,H,{3F384342-8C93-41E5-B44A-06B8E1788BA9},
995890.3583,998537.273800001,337,020A11,11,Br. Quiroga,AK 24,AK 24 - CL 31 Sur,Rafael Uribe,-74.11454308,4.58297186,020,S,AK 24 - CL 31 Sur (020A11),AK 24 - CL 31 Sur,Avenida Carrera 24 Calle 31 Sur,H,{775975CC-6DE9-4F1E-97E0-BF4CA09D97CE},
994954.1768,991637.8883,338,020A12,12,Br. La Aurora,Autopista al Llano,Autopista al Llano - DG 69F Sur,Usme,-74.12297582,4.5205794,020,S,Autopista al Llano - DG 69F Sur (020A12),Autopista al Llano - DG 69F Sur,Autopista al Llano Diagonal 69 F Sur,H,{011241C6-4D05-47A4-8DCF-A1408F32FCEC},
998020.8034,997623.0277,339,020A13,13,Br. 20 de Julio,AK 10,AK 10 - CL 21A Sur,San Cristóbal,-74.09534379,4.57470496,020,S,AK 10 - CL 21A Sur (020A13),AK 10 - CL 21A Sur,Avenida Carrera Décima Calle 21 A Sur,L,{DE7548C5-93D0-41FA-A7D5-BD5718499BBD},
998644.2035,1017400.9842,340,020B03,03,Br. Tuna Baja,CL 15 KR,CL 15 KR - 101A,Suba,-74.089729,4.753559,020,M,CL 15 KR - 101A (020B03),CL 15 KR - 101A,Calle 15 Carrera 101 A,C,{89158D94-FA41-4703-9648-18C92D708AAB},
1000734.4158,1006720.2723,341,021A00,00,Pl. 7 de Agosto,AK 24,AK 24 - CL 66,Barrios Unidos,-74.07088884,4.65697251,021,S,AK 24 - CL 66 (021A00),AK 24 - CL 66,Avenida Carrera 24 Calle 66,A,{D36E25EB-C18A-4887-824D-2D78A057F11E},
1003421.6392,1011228.2304,342,021A01,01,Br. Santa Bárbara Occidental,Cl 116,AC 116 - KR 17,Usaquén,-74.0466679,4.69773773,021,S,AC 116 - KR 17 (021A01),AC 116 - KR 17,Avenida Calle 116 Carrera 17,B,{23D2FF17-7D5E-454D-9B4A-E2507273F51C},
1000628.2819,1014239.6687,343,021A02,02,Br. Iberia,AV. Boyacá,AV. Boyacá - CL 132 BIS,Suba,-74.07184485,4.72497107,021,S,AV. Boyacá - CL 132 BIS (021A02),AV. Boyacá - CL 132 BIS,Avenida Boyacá Calle 132 Bis,C,{F14140B4-7B52-42E6-AD28-D4428EFAFEA7},
997550.8497,1013102.4181,344,021A04,04,Br. Ciudad Bachué I Etapa,AC 90,AC 90 - TV 94L,Engativá,-74.09958321,4.7146865,021,M,AC 90 - TV 94L (021A04),AC 90 - TV 94L,Avenida Calle 90 Transversal 94 L,D,{FC0C8704-D0CD-44C1-8152-2D55B7A8E081},
997611.1753,1008521.9753,345,021A05,05,Hospital Engativá,KR 70,AK 70 - CL 64,Engativá,-74.09903819,4.67326518,021,S,AK 70 - CL 64 (021A05),AK 70 - CL 64,Avenida Carrera 70 Calle 64,D,{984A3876-5F06-4049-98A9-86AC9CEEA619},
994844.1486,1005333.8694,346,021A06,06,Br. Montevideo,AV. Centenario,AV. Centenario - KR 68B,Fontibón,-74.12397528,4.64443363,021,S,AV. Centenario - KR 68B (021A06),AV. Centenario - KR 68B,Avenida Centenario Carrera 68 Be,K,{0357A867-87F3-4502-9FC1-858855AF06EA},
995811.7093,1004249.2866,347,021A07,07,Salazar Gómez,AV. Centenario,AV. Centenario - KR 65,Puente Aranda,-74.11525457,4.63462616,021,M,AV. Centenario - KR 65 (021A07),AV. Centenario - KR 65,Avenida Centenario Carrera 65,F,{C0FB9C3E-5255-4EEF-881C-2099C39EC091},
989066.7192,1003338.4461,348,021A08,08,Br. Las Margaritas,AV. C. de Cali,AV. C. de Cali - CL 48 Sur,Kennedy,-74.1760421,4.62638349,021,S,AV. C. de Cali - CL 48 Sur (021A08),AV. C. de Cali - CL 48 Sur,Avenida Ciudad de Cali Calle 48 Sur,G,{4FF9AD59-360E-48C9-AD47-D13A94C98242},
990672.507,1001387.5567,349,021A09,09,Urb. Lago de Timiza,Av. V/cio,AV. V/cio - CL 45 Sur,Kennedy,-74.16156817,4.60874327,021,S,AV. V/cio - CL 45 Sur (021A09),AV. V/cio - CL 45 Sur,Avenida Villavicencio Calle 45 Sur,G,{B4095B83-D88A-46AB-920F-1A56E406E680},
996079.7914,999834.134,350,021A10,10,Br. Eduardo Frei,AV. 1 de Mayo,AV. 1 de Mayo - KR 33,Antonio Nariño,-74.11283653,4.5946996,021,S,AV. 1 de Mayo - KR 33 (021A10),AV. 1 de Mayo - KR 33,Avenida Primero de Mayo Carrera 33,H,{C98DF5D6-5BF1-405A-A61E-1B19B739CA3D},
995643.3326,998453.9016,351,021A11,11,Br. Quiroga,AK 24,AK 24 - CL 32A Sur,Rafael Uribe,-74.11676918,4.5822178,021,S,AK 24 - CL 32A Sur (021A11),AK 24 - CL 32A Sur,Avenida Carrera 24 Calle 32 A Sur,H,{32959F4B-2653-4251-98C2-29AECEB21EB1},
995108.5983,991272.341700001,352,021A12,12,Br. Santa Librada,KR 14V,KR 14V - CL 73A Sur,Usme,-74.12158413,4.5172738,021,S,KR 14V - CL 73A Sur (021A12),KR 14V - CL 73A Sur,Autopista al Llano Calle 73 A Sur,H,{6ADD034F-3911-441B-B8B8-A0B09317B2A2},
997685.4134,997259.013499999,353,021A13,13,Br. 20 de Julio,AK 10,AK 10 - CL 27A Sur,San Cristóbal,-74.09836611,4.57141306,021,S,AK 10 - CL 27A Sur (021A13),AK 10 - CL 27A Sur,Avenida Carrera Décima Calle 27 A Sur,L,{68ED9F33-672E-46B1-882B-63041387E5EC},
997489.8877,1013151.4649,354,021B04,04,Br. Ciudad Bachué I Etapa,AC 90,AC 90 - TV 94L,Engativá,-74.1001327,4.71513001,021,M,AC 90 - TV 94L (021B04),AC 90 - TV 94L,Avenida Calle 90 Transversal 94 L,D,{9B8FA549-275B-4AF9-B947-B6404616126B},
995811.7093,1004249.2866,355,021B07,07,Br. Salazar Gómez,AV. Centenario,AV. Centenario - KR 65,Puente Aranda,-74.11525457,4.63462616,021,M,AV. Centenario - KR 65 (021B07),AV. Centenario - KR 65,Avenida Centenario Carrera 65,F,{6634D3E4-B6D3-427C-A21B-7DF02FA419B4},
1000565.8176,1005492.3973,356,022A00,00, San Luis CL 58,TV 24,TV 24 - CL 58,Teusaquillo,-74.07240845,4.64586873,022,S,TV 24 - CL 58 (022A00),TV 24 - CL 58,Transversal 24 Calle 58,A,{49FFDAC3-D467-4DFE-9B9C-F74476BA8C35},
1003373.648,1011211.9869,357,022A01,01,Br. San Patricio,AC 116,AC 116 - KR 17A,Usaquén,-74.04710046,4.69759086,022,S,AC 116 - KR 17A (022A01),AC 116 - KR 17A,Avenida Calle 116 Carrera 17 A,B,{66981C71-4E46-43A4-8608-8CEF91063399},
1000724.8952,1014421.3474,358,022A02,02,Br. Iberia,AV. Boyacá,AV. Boyaca - AC 134,Suba,-74.070974,4.726614,022,S,AV. Boyaca - AC 134 (022A02),AV. Boyaca - AC 134,Avenida Boyacá Avenida Calle 134,C,{0EECDDB3-0872-4C9F-B2F9-3E63B27AF49C},
998138.3273,1017661.9681,359,022A03,03,Br. El Carmen Tuna Baja,Cl 153,CL 153 - KR 109 A,Suba,-74.094289,4.755919,022,S,CL 153 - KR 109 A (022A03),CL 153 - KR 109 A,Calle 153 Carrera 109 A,C,{7F8D4F18-6CE0-4EBD-BFF5-D695EB5271A9},
997541.5903,1013140.1495,360,022A04,04,Desarrollo Luis Carlos Galán,AC 90,AC 90 - KR 94L,Engativá,-74.09966668,4.7150277,022,S,AC 90 - KR 94L (022A04),AC 90 - KR 94L,Avenida Calle 90 Carrera 94 L,D,{0B57DC2B-44AF-4241-AD37-E90A5F5BC6E0},
997514.4421,1008374.3323,361,022A05,05,Br. La Estrada,KR  70,AK 70 - CL 63D,Engativá,-74.09991,4.67193,022,S,AK 70 - CL 63D (022A05),AK 70 - CL 63D,Avenida Carrera 70 Calle 63 D,D,{407CC0F2-6C03-4BD0-9902-33C55D5A4C73},
995179.8924,1004782.1824,362,022A06,06,Br. Granjas de Techo,AV. Centenario,AV. Centenario - KR 69B,Fontibón,-74.12094907,4.63944486,022,S,AV. Centenario - KR 69B (022A06),AV. Centenario - KR 69B,Avenida Centenario Carrera 69 Be,K,{DE2EDBB0-F466-427E-A6CF-F964BF744768},
996084.273,1004011.4774,363,022A07,07,Salazar Gómez,AV. Centenario,AV. Centenario - AK 60,Puente Aranda,-74.112798,4.63247576,022,M,AV. Centenario - AK 60 (022A07),AV. Centenario - AK 60,Avenida Centenario Avenida Carrera 60,F,{A77E2610-95C6-4B26-810E-7680F5CCD72C},
989503.9965,1003482.9363,364,022A08,08,Portal Américas,AV. C. de Cali,AV. C. de Cali - AV. V/cio,Kennedy,-74.1721014,4.62769066,022,S,AV. C. de Cali - AV. V/cio (022A08),AV. C. de Cali - AV. V/cio,Avenida Ciudad de Cali Avenida Villavicencio,G,{4A315039-8462-4E9F-A74C-6B1789EBB89E},
990697.3031,1001391.8717,365,022A09,09,Br. Timiza B,Av. V/cio,AV. V/cio - TV 77P Bis,Kennedy,-74.16134471,4.60878232,022,S,AV. V/cio - TV 77P Bis (022A09),AV. V/cio - TV 77P Bis,Avenida Villavicencio Transversal 77 P Bis,G,{0C947474-1E49-4C8F-9B0C-67AB078F7463},
995575.6708,999437.6995,366,022A10,10,Br. Eduardo Frei,KR 30,KR 30 - DG 32 Sur,Antonio Nariño,-74.11737942,4.59111436,022,S,KR 30 - DG 32 Sur (022A10),KR 30 - DG 32 Sur,Avenida N Q S Diagonal 32 Sur,H,{EC9DD84F-E839-40CE-BE91-683F9AE035AA},
995326.2411,998344.9059,367,022A11,11,Br. Quiroga,AK 24,AK 24 - AC 36 Sur,Rafael Uribe,-74.11962667,4.58123197,022,S,AK 24 - AC 36 Sur (022A11),AK 24 - AC 36 Sur,Avenida Carrera 24 Avenida Calle 36 Sur,H,{5ADE267D-E208-4EA8-AD6B-C96DCF5B65D4},
995049.4117,991317.7653,368,022A12,12,Br. Quintas de Plan Social,KR 14V,KR 14V - CL 73 Bis Sur,Usme,-74.12211748,4.51768454,022,S,KR 14V - CL 73 Bis Sur (022A12),KR 14V - CL 73 Bis Sur,Autopista al Llano Calle 72 C Sur,H,{B516AADA-27D8-4381-9A8C-C64038C29F79},
997934.22,997161.25,369,022A13,13,Br. 20 de Julio,CL 27 Sur,CL 27 Sur - KR 7B,San Cristóbal,-74.09612394,4.57052903,022,S,CL 27 Sur - KR 7B (022A13),CL 27 Sur - KR 7B,Calle 27 Sur Carrera Séptima Be,L,{4A5B6C3E-55C9-488B-872A-EC8AF8F9C4D7},
995992.5148,1004087.1469,370,022B07,07,Salazar Gómez,AV. Centenario,AV. Centenario - KR 62,Puente Aranda,-74.113625,4.63316,022,M,AV. Centenario - KR 62 (022B07),AV. Centenario - KR 62,(en blanco),F,{6D4C3221-4DEC-4FA1-9AC3-4DD96B9F2FA9},
1000515.5994,1005300.3125,371,023A00,00, San Luis,TV 24,TV 24 - DG 53D,Teusaquillo,-74.07286105,4.64413169,023,S,TV 24 - DG 53D  (023A00),TV 24 - DG 53D,Transversal 24 Diagonal 53 D,A,{E79AD032-209D-4E84-A9FF-4B546BBB4DDE},
1003187.96,1011285.8047,372,023A01,01,Br. San Patricio,AC 116,AC 116 - KR 18B,Usaquén,-74.04877408,4.69825847,023,S,AC 116 - KR 18B  (023A01),AC 116 - KR 18B,Avenida Calle 116 Carrera 18 Be,B,{E8EE515D-5A97-4CE9-B745-4D08ECE324C6},
1001672.3584,1013983.6643,373,023A02,02,C.C. Paseo San Rafael,AC 134,AC 134 - KR 55A,Suba,-74.06243403,4.72265586,023,S,AC 134 - KR 55A (023A02),AC 134 - KR 55A,Avenida Calle 134 Carrera 55 A,C,{0F02C2E4-F763-403E-8333-BA95F6A08896},
998573.6023,1015037.1874,374,023A03,03,Villa Elisa,AC 132,AC 132 - KR 94C,Suba,-74.090365,4.732183,023,S,AC 132 - KR 94C  (023A03),AC 132 - KR 94C,Avenida Calle 132 Carrera 94 C,C,{6456D78D-A5EE-4DFA-A876-032628030A69},
997220.3216,1013416.7479,375,023A04,04,Br. Ciudad Bachué I Etapa,AC 90,AC 90 - KR 95F,Engativá,-74.10256251,4.71752891,023,M,AC 90 - KR 95F (023A04),AC 90 - KR 95F,Avenida Calle 90 Carrera 95 F,D,{41049201-306E-41E3-A585-A11551A7D51B},
996858.7894,1007802.34,376,023A05,05,Br. Normandía,KR  70,AK 70 - CL 51,Engativá,-74.10581912,4.66675721,023,S,AK 70 - CL 51 (023A05),AK 70 - CL 51,Avenida Carrera 70 Calle 51,K,{7E6FA5E3-33DB-42AC-8A49-48DFD69B21A3},
995743.2074,1004376.773,377,023A06,06,Centro Industrial,AV. Centenario,AV. Centenario - KR 65,Puente Aranda,-74.115872,4.635779,023,M,AV. Centenario - KR 65 (023A06),AV. Centenario - KR 65,(en blanco),K,{69E35544-76B2-4CBC-B9C9-BF15E6DECEC6},
996369.3097,1003721.3946,378,023A07,07,Salazar Gómez,AV. Centenario,AV. Centenario - KR 56,Puente Aranda,-74.11022902,4.62985263,023,M,AV. Centenario - KR 56 (023A07),AV. Centenario - KR 56,Avenida Centenario Carrera 56,F,{5C6DF160-7EBC-4A1C-904E-0F70A982644E},
989523.4324,1003519.6847,379,023A08,08,Portal Américas,AV. C. de Cali,AV. C. de Cali - AV. V/cio,Kennedy,-74.17192628,4.62802301,023,S,AV. C. de Cali - AV. V/cio (023A08),AV. C. de Cali - AV. V/cio,Avenida Ciudad de Cali Avenida Villavicencio,G,{FB6E3DE1-4A08-42C4-8E99-036203938A19},
990616.3527,1000707.6847,380,023A09,09,Br. Olarte,Av. V/cio,AV. V/cio - CL 54A Sur,Bosa,-74.16207351,4.60259506,023,S,AV. V/cio - CL 54A Sur (023A09),AV. V/cio - CL 54A Sur,Avenida Villavicencio Calle 54 A Sur,G,{6DB84F17-3D62-40E3-BA28-2C9B8C4AA5AF},
995611.492,999434.0658,381,023A10,10,Br. Eduardo Frei,KR 30,KR 30 - CL 32A Sur,Antonio Nariño,-74.1170566,4.59108151,023,S,KR 30 - CL 32A Sur (023A10),KR 30 - CL 32A Sur,Avenida N Q S Calle 32 A Sur,H,{073FD9C6-AAF5-45B7-98A1-E26BCE433E3A},
995123.9032,998274.452299999,382,023A11,11,Br. Quiroga,AK 24,AK 24 - CL 40 Sur,Rafael Uribe,-74.12145005,4.58059474,023,S,AK 24 - CL 40 Sur (023A11),AK 24 - CL 40 Sur,Avenida Carrera 24 Calle 40 Sur,H,{5B9CCB9A-92D5-4222-89DC-EEFFFBAD4FF5},
996152.9633,990082.149499999,383,023A12,12,Br. Chuniza I,CL 84 Sur,CL 84 Sur - KR 10,Usme,-74.11217289,4.50651125,023,S,CL 84 Sur - KR 10 (023A12),CL 84 Sur - KR 10,Calle 84 Sur Carrera Primera C Este,H,{9AFFC24E-729C-4C1C-8020-D5E09DB1B492},
995783.6111,1004342.8054,384,023B06,06,Centro Industrial,AV. Centenario,AV. Centenario - KR 65,Puente Aranda,-74.11550785,4.63547185,023,M,AV. Centenario - KR 65 (023B06),AV. Centenario - KR 65,Avenida Centenario Carrera 65,K,{9A3FC714-3F75-4EA1-8592-0529F67A3C0F},
996305.2924,1003798.6243,385,023B07,07,Salazar Gómez,AV. Centenario,AV. Centenario - KR 56,Puente Aranda,-74.110806,4.630551,023,M,AV. Centenario - KR 56 (023B07),AV. Centenario - KR 56,(en blanco),F,{202A39DE-F122-43BF-B0F6-435D1BB42CFD},
1000317.3077,1004646.9888,386,024A00,00,IED Palermo,AK 24,AK 24 - CL 49,Teusaquillo,-74.07464819,4.63822362,024,S,AK 24 - CL 49 (024A00),AK 24 - CL 49,Avenida Carrera 24 Calle 49,A,{1E4EF882-3ADF-41D2-BC23-2AEAF55E3155},
1002744.4179,1011362.9848,387,024A01,01,Br. San Patricio,AC 116,AC 116 - KR 21,Usaquén,-74.0527718,4.69895657,024,S,AC 116 - KR 21 (024A01),AC 116 - KR 21,Avenida Calle 116 Carrera 21,B,{12CB2AE4-363A-4536-B0E0-9298BD350C19},
1001241.4607,1014665.233,388,024A02,02,Br. Iberia,CL 138,CL 138 - 58-25,Suba,-74.06631785,4.72881942,024,S,CL 138 - 58-25 (024A02),CL 138 - 58-25,Calle 138 Carrera 58 Be,C,{B5F41B9F-4C31-4EE5-8812-2B8B8B32719D},
997249.1986,1013427.2683,389,024A04,04,Ciudad Bachué,AC 90,AC 90 - KR 95F,Engativá,-74.10230223,4.71762405,024,M,AC 90 - KR 95F (024A04),AC 90 - KR 95F,Avenida Calle 90 Carrera 95 F,D,{9BC92ACB-883C-45C8-BB50-B99F21D4F325},
998139.2149,1009269.6141,390,024A05,05,Br. El Laurel,KR 70,AK 70 - CL 68A,Engativá,-74.09427918,4.68002627,024,S,AK 70 - CL 68A (024A05),AK 70 - CL 68A,Avenida Carrera 70 Calle 68 A,D,{8B91C5F2-1412-46B4-A269-A830092BEC13},
996190.039,1003987.6364,391,024A06,06,Puente Aranda,AV. Centenario,AV. Centenario - KR 59,Puente Aranda,-74.11184479,4.63226021,024,S,AV. Centenario - KR 59 (024A06),AV. Centenario - KR 59,Avenida Centenario Carrera 59,K,{9626CE46-A646-4F61-A062-E29AA1D4B003},
998190.2803,1003166.1296,392,024A07,07,Br. Industrial Centenario,Tv 39 Bis A,TV 39 Bis A - AV. Américas,Puente Aranda,-74.09381766,4.62483188,024,M,TV 39 Bis A - AV. Américas (024A07),TV 39 Bis A - AV. Américas,Transversal 39 Bis A Avenida de las Américas,F,{4BAAFA8F-0C14-4AD2-B2EF-3514BD849473},
989862.2229,1003671.6003,393,024A08,08,Br. Tintalito,AV. C. de Cali,AV. C. de Cali - CL 42C Sur,Kennedy,-74.16887316,4.62939719,024,M,AV. C. de Cali - CL 42C Sur (024A08),AV. C. de Cali - CL 42C Sur,Avenida Ciudad de Cali Calle 42 C Sur,F,{79C60798-25F7-4CF1-AB7E-9A97E0A086D1},
990649.9846,1000720.3209,394,024A09,09,Br. Villa del Río,Av. V/cio,AV. V/cio - CL 54B Sur,Bosa,-74.16177043,4.60270937,024,S,AV. V/cio - CL 54B Sur (024A09),AV. V/cio - CL 54B Sur,Avenida Villavicencio Calle 54 Be Sur,G,{6CA4D8EE-F4E3-4D63-A847-3B0D53174224},
996022.3334,999730.2949,395,024A10,10,Br. Santander Sur,KR 30,KR 30 - CL 27 Sur,Antonio Nariño,-74.11335429,4.59376054,024,S,KR 30 - CL 27 Sur (024A10),KR 30 - CL 27 Sur,Avenida N Q S Calle 27 Sur,H,{9C3BD237-9537-45CD-8A0C-07E48D8D5E95},
994825.5136,998169.5803,396,024A11,11,Pquia. San Luis Gonzaga,AK 24,AK 24 - CL 42 Sur,Rafael Uribe,-74.124139,4.5796462,024,S,AK 24 - CL 42 Sur (024A11),AK 24 - CL 42 Sur,Avenida Carrera 24 Calle 42 Sur,H,{20B90183-46C6-4F20-9265-28D3AF63C29B},
996136.1793,990109.1152,397,024A12,12,Br. Gran Yomasa,CL 84 Sur,CL 84 Sur – KR 9A,Usme,-74.11232414,4.5067551,024,S,CL 84 Sur – KR 9A (024A12),CL 84 Sur – KR 9A,Calle 84 Sur Carrera Primera C Este,H,{7406EB5C-D38E-4685-80D4-B6690C514787},
998206.4025,996980.928099999,398,024A13,13,Br. Granada Sur,TV  3,TV 3 - CL 27 Sur,San Cristóbal,-74.0936711,4.56889842,024,S,TV 3 - CL 27 Sur (024A13),TV 3 - CL 27 Sur,Transversal Tercera Calle 27 Sur,L,{65B4236C-0BEF-4D1F-86F3-7498F88979AA},
998637.6056,1015028.4055,399,024B03,03,Villa Elisa,AC 132,AC 132 - KR 94B,Suba,-74.08978809,4.7321036,024,M,AC 132 - KR 94B  (024B03),AC 132 - KR 94B,Avenida Calle 132 Carrera 94 Be,C,{22E5DE01-1090-40B1-947F-71906EA1DF72},
998200.523,1003079.9312,400,024B07,07,Br. Industrial Centenario,AC 19,AC 19 - AK 39,Puente Aranda,-74.09372533,4.62405238,024,M,AC 19 - AK 39 (024B07),AC 19 - AK 39,Avenida Calle 19 Avenida Carrera 39,F,{C5E83DD0-B023-40CE-850D-E65D27B42815},
989833.7233,1003650.908,401,024B08,08,Br. Tintalito,AV. C. de Cali,AV. C. de Cali - CL 42C Sur,Kennedy,-74.16912999,4.62921004,024,M,AV. C. de Cali - CL 42C Sur (024B08),AV. C. de Cali - CL 42C Sur,Avenida Ciudad de Cali Calle 42 C Sur,F,{EF9D0ABA-10D8-4A40-90AD-9D3B448418B1},
